time,des_roll,roll,des_pitch,pitch,des_yaw,yaw,volt,curr
179493607,0.0,0.84,0.0,1.1300000000000001,147.3,147.29,16.489381790161133,0.0
179593212,0.0,0.84,0.0,1.1300000000000001,148.82,147.29,16.499618530273438,0.0
179693371,0.0,0.84,0.0,1.1300000000000001,153.04,147.29,16.49952507019043,0.0
179792955,0.0,0.8300000000000001,0.0,1.1300000000000001,159.96,147.29,16.500041961669922,0.0
179892934,0.0,0.8300000000000001,0.0,1.1300000000000001,169.58,147.29,16.499980926513672,0.0
179992888,0.0,0.8300000000000001,0.0,1.12,174.3,147.29,16.497379302978516,0.0
180092882,0.0,0.8300000000000001,0.0,1.12,174.37,147.29,16.497379302978516,0.0
180192871,0.0,0.8300000000000001,0.0,1.12,174.43,147.29,16.50028419494629,0.0
180292889,0.0,0.8300000000000001,0.0,1.12,174.46,147.29,16.49834632873535,0.0
180392833,0.0,0.8300000000000001,0.0,1.12,174.46,147.29,16.501312255859375,0.0
180492834,0.0,0.8300000000000001,0.0,1.12,174.39000000000001,147.3,16.500062942504883,0.0
180592920,0.0,0.8300000000000001,0.0,1.12,174.32,147.3,16.497499465942383,0.0
180692820,0.0,0.8300000000000001,0.0,1.12,174.26,147.3,16.502464294433594,0.0
180792871,0.0,0.8300000000000001,0.0,1.12,174.19,147.29,16.499013900756836,0.0
180892857,0.0,0.8300000000000001,0.0,1.12,174.12,147.29,16.499799728393555,0.0
180992857,0.0,0.8200000000000001,0.0,1.1300000000000001,174.05,147.29,16.499256134033203,0.0
181092845,0.0,0.8200000000000001,0.0,1.1300000000000001,173.98,147.29,16.49616813659668,0.0
181192884,0.0,0.8200000000000001,0.0,1.1300000000000001,173.95000000000002,147.28,16.4954891204834,0.0
181292921,0.0,0.8200000000000001,0.0,1.1300000000000001,173.95000000000002,147.28,16.496652603149414,0.0
181392892,0.0,0.8200000000000001,0.0,1.1300000000000001,173.95000000000002,147.28,16.499135971069336,0.0
181492861,0.0,0.8200000000000001,0.0,1.1300000000000001,147.29,147.28,16.50022315979004,0.0
181592987,0.0,0.8200000000000001,0.0,1.1300000000000001,147.29,147.29,16.46251678466797,0.0
181692856,0.0,0.8200000000000001,0.0,1.1400000000000001,147.3,147.29,16.383771896362305,0.0
181792906,0.0,0.8200000000000001,0.0,1.1300000000000001,147.29,147.28,16.380685806274414,0.0
181892907,0.0,0.8200000000000001,0.0,1.1400000000000001,147.28,147.28,16.32796859741211,0.05823102965950966
181992837,0.0,0.81,0.0,1.1400000000000001,147.28,147.28,16.227798461914062,2.1416969299316406
182093013,0.0,0.8,0.0,1.12,147.28,147.28,16.31077766418457,0.6321078538894653
182192834,0.0,0.79,0.0,1.12,147.28,147.27,16.34812355041504,0.010441426187753677
182292848,0.0,0.77,0.0,1.1,147.28,147.28,16.36168098449707,0.0
182392840,0.0,0.78,0.0,1.11,147.28,147.29,16.366825103759766,0.0
182492849,0.0,0.79,0.0,1.11,147.28,147.29,16.371910095214844,0.0
182592972,0.0,0.78,0.0,1.1,147.28,147.29,16.37127685546875,0.0
182692823,0.0,0.78,0.0,1.1,147.28,147.3,16.37548065185547,0.0
182792883,0.0,0.77,0.0,1.09,147.28,147.31,16.375843048095703,0.0
182892928,0.0,0.79,0.0,1.11,147.28,147.32,16.377355575561523,0.0
182992933,0.0,0.76,0.0,1.11,147.28,147.32,16.37717628479004,0.0
183092882,0.0,0.77,0.0,1.12,147.28,147.32,16.376571655273438,0.0
183192886,0.0,0.78,0.0,1.1,147.28,147.32,16.376630783081055,0.0
183292882,0.0,0.75,0.0,1.11,147.28,147.33,16.378875732421875,0.0
183392857,0.0,0.77,0.0,1.1,147.28,147.33,16.38280487060547,0.0
183492945,0.0,0.76,0.0,1.11,147.28,147.34,16.38117027282715,0.0
183592892,0.0,0.73,0.0,1.1,147.28,147.35,16.378808975219727,0.0
183692856,0.0,0.76,0.0,1.1,147.28,147.34,16.3824405670166,0.0
183792842,0.0,0.77,0.0,1.11,147.28,147.35,16.376630783081055,0.0
183892865,0.0,0.74,0.0,1.11,147.28,147.36,16.380441665649414,0.0
183992836,0.0,0.75,0.0,1.11,147.28,147.36,16.376571655273438,0.0
184092837,0.0,0.77,0.0,1.12,147.28,147.36,16.378944396972656,0.0
184192915,0.0,0.75,0.0,1.11,147.28,147.36,16.377355575561523,0.0
184292851,0.0,0.75,0.0,1.09,147.28,147.37,16.38014030456543,0.0
184392880,0.0,0.78,0.0,1.1300000000000001,147.28,147.37,16.380382537841797,0.0
184492887,0.0,0.77,0.0,1.1300000000000001,147.28,147.38,16.379051208496094,0.0
184592938,0.0,0.75,0.0,1.12,147.28,147.38,16.375661849975586,0.0
184692861,0.0,0.75,0.0,1.11,147.28,147.37,16.38080596923828,0.0
184792912,0.0,0.78,0.0,1.1300000000000001,147.28,147.39000000000001,16.375715255737305,0.0
184892862,0.0,0.77,0.0,1.1300000000000001,147.28,147.39000000000001,16.380504608154297,0.0
184992857,0.0,0.76,0.0,1.11,147.28,147.4,16.37759780883789,0.0
185092878,0.0,0.77,0.0,1.1300000000000001,147.28,147.39000000000001,16.376571655273438,0.0
185192845,0.0,0.77,0.0,1.1300000000000001,147.28,147.41,16.376266479492188,0.0
185292815,0.0,0.76,0.0,1.12,147.28,147.41,16.379777908325195,0.0
185392826,0.0,0.76,0.0,1.11,147.28,147.41,16.37862777709961,0.0
185492830,0.0,0.77,0.0,1.1300000000000001,147.28,147.4,16.38028907775879,0.0
185592944,0.0,0.76,0.0,1.12,147.28,147.44,16.378870010375977,0.0
185692894,0.0,0.75,0.0,1.11,147.28,147.42000000000002,16.378747940063477,0.0
185792891,0.0,0.76,0.0,1.12,147.28,147.43,16.37771987915039,0.0
185892852,0.0,0.76,0.0,1.12,147.28,147.43,16.380441665649414,0.0
185992888,0.0,0.73,0.0,1.1,147.28,147.43,16.374210357666016,0.0
186092926,0.0,0.77,0.0,1.12,147.28,147.45000000000002,16.380441665649414,0.0
186192851,0.0,0.78,0.0,1.1400000000000001,147.28,147.44,16.376508712768555,0.0
186292929,0.0,0.75,0.0,1.12,147.28,147.44,16.379817962646484,0.0
186392916,0.0,0.78,0.0,1.1300000000000001,147.28,147.44,16.376691818237305,0.0
186492876,0.0,0.75,0.0,1.12,147.28,147.46,16.37759780883789,0.0
186592936,0.0,0.75,0.0,1.11,147.28,147.46,16.377477645874023,0.0
186692835,0.0,0.77,0.0,1.1400000000000001,147.28,147.46,16.377660751342773,0.0
186792864,0.0,0.74,0.0,1.11,147.28,147.46,16.372514724731445,0.0
186892900,0.0,0.77,0.0,1.1300000000000001,147.28,147.45000000000002,16.375965118408203,0.0
186992810,0.0,0.75,0.0,1.12,147.28,147.47,16.375513076782227,0.0
187092840,0.0,0.77,0.0,1.12,147.28,147.47,16.37856674194336,0.0
187192845,0.0,0.79,0.0,1.1400000000000001,147.28,147.47,16.373363494873047,0.0
187292848,0.0,0.76,0.0,1.11,147.28,147.47,16.376873016357422,0.0
187392907,0.0,0.78,0.0,1.1300000000000001,147.28,147.48,16.374876022338867,0.0
187492896,0.0,0.77,0.0,1.11,147.28,147.48,16.382017135620117,0.0
187593078,0.0,0.79,0.0,1.1400000000000001,147.28,147.5,16.375661849975586,0.0
187692905,0.0,0.79,0.0,1.1400000000000001,147.28,147.49,16.373497009277344,0.0
187792910,0.0,0.77,0.0,1.12,147.28,147.49,16.374149322509766,0.0
187892897,0.0,0.78,0.0,1.1400000000000001,147.28,147.5,16.379112243652344,0.0
187992867,0.0,0.75,0.0,1.11,147.28,147.49,16.371667861938477,0.0
188092886,0.0,0.78,0.0,1.1300000000000001,147.28,147.5,16.378870010375977,0.0
188192876,0.0,0.77,0.0,1.12,147.28,147.49,16.372514724731445,0.0
188292824,0.0,0.78,0.0,1.12,147.28,147.5,16.3752384185791,0.0
188392947,0.0,0.76,0.0,1.12,147.28,147.5,16.37312126159668,0.0
188492863,0.0,0.78,0.0,1.1300000000000001,147.28,147.49,16.377328872680664,0.0
188592907,0.0,0.77,0.0,1.1300000000000001,147.28,147.51,16.37457275390625,0.0
188692845,0.0,0.76,0.0,1.1300000000000001,147.28,147.52,16.377962112426758,0.0
188792857,0.0,0.77,0.0,1.12,147.28,147.51,16.37196922302246,0.0
188892923,0.0,0.77,0.0,1.11,147.28,147.52,16.374876022338867,0.0
188992875,0.0,0.78,0.0,1.12,147.28,147.51,16.372272491455078,0.0
189092865,0.0,0.75,0.0,1.11,147.28,147.53,16.3739070892334,0.0
189192919,0.0,0.78,0.0,1.11,147.28,147.54,16.37537956237793,0.0
189292898,0.0,0.79,0.0,1.1300000000000001,147.28,147.54,16.371910095214844,0.0
189392879,0.0,0.77,0.0,1.1,147.28,147.54,16.374814987182617,0.0
189492873,0.0,0.78,0.0,1.12,147.28,147.54,16.37517738342285,0.0
189592923,0.0,0.78,0.0,1.11,147.28,147.54,16.370033264160156,0.0
189692903,0.0,0.8,0.0,1.11,147.28,147.55,16.37299919128418,0.0
189792916,0.0,0.78,0.0,1.12,147.28,147.57,16.3737850189209,0.0
189892855,0.0,0.78,0.0,1.11,147.28,147.55,16.373092651367188,0.0
189992963,0.0,0.78,0.0,1.1,147.28,147.55,16.371000289916992,0.0
190092884,0.0,0.77,0.0,1.1,147.28,147.56,16.373241424560547,0.0
190192888,0.0,0.78,0.0,1.11,147.28,147.56,16.37366485595703,0.0
190292841,0.0,0.77,0.0,1.08,147.28,147.57,16.37360382080078,0.0
190392859,0.0,0.79,0.0,1.09,147.28,147.56,16.37384605407715,0.0
190492846,0.0,0.76,0.0,1.07,147.28,147.57,16.37281608581543,0.0
190592909,0.0,0.76,0.0,1.09,147.28,147.58,16.371545791625977,0.0
190692927,0.0,0.8,0.0,1.09,147.28,147.58,16.369796752929688,0.0
190792946,0.0,0.76,0.0,1.08,147.28,147.59,16.37045669555664,0.0
190892857,0.0,0.76,0.0,1.1,147.28,147.59,16.374027252197266,0.0
190992831,0.0,0.77,0.0,1.1,147.28,147.58,16.369850158691406,0.0
191092893,0.0,0.76,0.0,1.08,147.28,147.58,16.37366485595703,0.0
191192875,0.0,0.78,0.0,1.11,147.28,147.6,16.371061325073242,0.0
191292906,0.0,0.78,0.0,1.09,147.28,147.6,16.37196922302246,0.0
191392830,0.0,0.77,0.0,1.09,147.28,147.6,16.373430252075195,0.0
191492850,0.0,0.78,0.0,1.1,147.28,147.61,16.369428634643555,0.0
191592911,0.0,0.78,0.0,1.1,147.28,147.62,16.370820999145508,0.0
191692808,0.0,0.8,0.0,1.11,147.28,147.62,16.372695922851562,0.0
191792900,0.0,0.79,0.0,1.08,147.28,147.62,16.372272491455078,0.0
191892889,0.0,0.78,0.0,1.11,147.28,147.61,16.372394561767578,0.0
191992811,0.0,0.79,0.0,1.09,147.28,147.64000000000001,16.371484756469727,0.0
192092872,0.0,0.78,0.0,1.08,147.28,147.64000000000001,16.372554779052734,0.0
192192878,0.0,0.79,0.0,1.09,147.28,147.65,16.367794036865234,0.0
192292899,0.0,0.79,0.0,1.08,147.28,147.66,16.365978240966797,0.0
192392898,0.0,0.79,0.0,1.08,147.28,147.66,16.370637893676758,0.0
192492886,0.0,0.81,0.0,1.09,147.28,147.66,16.36979103088379,0.0
192593038,0.0,0.79,0.0,1.07,147.28,147.67000000000002,16.36900520324707,0.0
192692880,0.0,0.79,0.0,1.09,147.28,147.68,16.369186401367188,0.0
192792903,0.0,0.78,0.0,1.08,147.28,147.68,16.36888313293457,0.0
192892911,0.0,0.79,0.0,1.1,147.28,147.69,16.369125366210938,0.0
192992844,0.0,0.78,0.0,1.09,147.28,147.68,16.368581771850586,0.0
193092836,0.0,0.8,0.0,1.1,147.28,147.70000000000002,16.368701934814453,0.0
193192770,0.0,0.77,0.0,1.08,147.28,147.70000000000002,16.36815643310547,0.0
193292884,0.0,0.8,0.0,1.11,147.28,147.71,16.365070343017578,0.0
193392829,0.0,0.79,0.0,1.09,147.28,147.71,16.368398666381836,0.0
193492832,0.0,0.79,0.0,1.1,147.28,147.71,16.370880126953125,0.0
193592919,0.0,0.78,0.0,1.09,147.28,147.72,16.36959457397461,0.0
193692832,0.0,0.79,0.0,1.11,147.28,147.72,16.3679141998291,0.0
193792918,0.0,0.78,0.0,1.09,147.28,147.72,16.36972999572754,0.0
193892910,0.0,0.8,0.0,1.11,147.28,147.73,16.368640899658203,0.0
193992886,0.0,0.77,0.0,1.08,147.28,147.73,16.367006301879883,0.0
194092882,0.0,0.79,0.0,1.1,147.28,147.73,16.369125366210938,0.0
194192899,0.0,0.75,0.0,1.08,147.28,147.73,16.36894416809082,0.0
194292890,0.0,0.75,0.0,1.08,147.28,147.74,16.371000289916992,0.0
194392867,0.0,0.75,0.0,1.08,147.28,147.75,16.365964889526367,0.0
194492939,0.0,0.75,0.0,1.08,147.28,147.76,16.36888313293457,0.0
194592950,0.0,0.76,0.0,1.1,147.28,147.75,16.365554809570312,0.0
194692841,0.0,0.75,0.0,1.09,147.28,147.75,16.372756958007812,0.0
194792888,0.0,0.74,0.0,1.08,147.28,147.75,16.36797523498535,0.0
194892848,0.0,0.75,0.0,1.09,147.28,147.77,16.368824005126953,0.0
194992835,0.0,0.74,0.0,1.08,147.28,147.76,16.367551803588867,0.0
195092858,0.0,0.74,0.0,1.1,147.28,147.77,16.370874404907227,0.0
195192854,0.0,0.74,0.0,1.09,147.28,147.77,16.366159439086914,0.0
195292901,0.0,0.75,0.0,1.08,147.28,147.75,16.373363494873047,0.0
195392900,0.0,0.75,0.0,1.08,147.28,147.76,16.367067337036133,0.0
195492937,0.0,0.73,0.0,1.07,147.28,147.77,16.368459701538086,0.0
195592920,0.0,0.76,0.0,1.09,147.28,147.78,16.36640167236328,0.0
195692895,0.0,0.77,0.0,1.09,147.28,147.77,16.37209129333496,0.0
195792890,0.0,0.74,0.0,1.08,147.28,147.77,16.36579704284668,0.0
195892855,0.0,0.77,0.0,1.09,147.28,147.78,16.367847442626953,0.0
195992910,0.0,0.74,0.0,1.07,147.28,147.8,16.36428451538086,0.0
196092848,0.0,0.77,0.0,1.09,147.28,147.8,16.372695922851562,0.0
196192855,0.03,0.77,0.04,1.09,147.28,147.79,16.365190505981445,0.0
196293036,0.06,0.74,0.05,1.09,147.28,147.8,16.361923217773438,0.0
196392928,0.1,0.77,0.06,1.09,147.28,147.8,16.306360244750977,0.14377041161060333
196492898,0.14,0.73,0.07,1.06,147.28,147.8,16.201772689819336,1.7814679145812988
196592991,0.15,0.74,0.14,1.07,147.28,147.81,16.096155166625977,3.4684276580810547
196692868,0.16,0.74,0.22,1.06,147.28,147.81,16.0200138092041,4.8383965492248535
196792945,0.13,0.71,0.27,1.04,147.28,147.83,15.932615280151367,6.191564559936523
196892935,0.11,0.71,0.31,1.06,147.28,147.83,15.870636940002441,7.340723991394043
196992951,0.07,0.74,0.37,1.07,147.28,147.85,15.79310417175293,8.50313663482666
197092951,0.03,0.75,0.39,1.09,147.28,147.9,15.724529266357422,9.731409072875977
197192944,0.03,0.67,0.4,1.07,147.28,147.95000000000002,15.631864547729492,11.233569145202637
197292910,0.0,0.59,0.27,1.06,147.28,148.22,15.525533676147461,13.00827693939209
197392927,-0.1,0.35000000000000003,0.2,1.05,147.28,148.86,15.439210891723633,14.149336814880371
197492891,0.02,-0.18,0.23,0.58,147.28,149.63,15.377657890319824,14.860960006713867
197592977,0.11,-1.37,0.45,-0.87,147.29,150.73,15.385705947875977,15.408130645751953
197692853,0.38,-1.25,0.92,-0.27,147.29,151.93,15.44356918334961,14.159175872802734
197792857,0.77,-0.77,1.4000000000000001,0.13,147.29,153.06,15.40162467956543,14.659360885620117
197892876,1.16,-0.41000000000000003,1.6500000000000001,0.81,147.3,154.02,15.411067008972168,14.54269790649414
197992904,1.56,-0.09,1.87,1.67,147.3,154.81,15.401261329650879,14.534867286682129
198092938,1.79,0.44,1.87,1.69,147.3,155.35,15.361980438232422,15.235779762268066
198192872,1.76,0.46,1.7,1.19,147.3,155.62,15.29619026184082,15.93200969696045
198292894,1.73,0.08,1.79,1.06,147.3,155.71,15.244197845458984,16.826759338378906
198392914,1.99,0.23,1.93,1.19,147.3,155.74,15.276337623596191,16.673551559448242
198492957,2.11,0.96,2.06,1.08,147.31,155.66,15.341160774230957,15.464956283569336
198592987,2.11,1.06,2.27,1.3,147.32,155.64000000000001,15.345760345458984,14.89670181274414
198692909,2.16,0.8200000000000001,2.41,2.04,147.32,155.54,15.348604202270508,14.983847618103027
198792924,2.2600000000000002,1.1300000000000001,2.37,1.62,147.32,155.33,15.35727310180664,14.78778076171875
198892911,2.31,1.17,2.36,1.3900000000000001,147.32,155.15,15.364583969116211,14.676026344299316
198992916,2.46,1.41,2.33,1.55,147.32,154.8,15.370272636413574,14.430452346801758
199092949,2.5,1.8,2.34,1.62,147.32,154.38,15.323427200317383,15.282835006713867
199192912,2.36,2.14,2.44,1.74,147.32,154.02,15.301032066345215,15.901689529418945
199292873,2.04,2.33,2.47,1.8800000000000001,147.32,153.76,15.311079978942871,15.45090103149414
199392856,1.51,2.0300000000000002,2.5100000000000002,2.07,147.32,153.6,15.303088188171387,15.381425857543945
199492870,1.01,1.23,2.5,2.14,147.32,153.56,15.298698425292969,15.786856651306152
199592935,0.58,0.97,2.44,1.97,147.32,153.64000000000001,15.292073249816895,15.785829544067383
199692862,0.18,0.9,2.41,1.75,147.32,153.76,15.280210494995117,15.835025787353516
199792905,-0.24,0.37,2.48,1.69,147.32,153.96,15.259207725524902,16.146862030029297
199892911,-0.56,-0.07,2.61,1.55,147.32,154.20000000000002,15.258119583129883,16.256093978881836
199992904,-0.87,-0.24,2.91,1.53,147.32,154.51,15.249161720275879,16.248064041137695
200092977,-1.1,-0.44,3.13,2.22,147.31,154.58,15.227795600891113,16.406291961669922
200192923,-1.27,-0.8200000000000001,3.33,2.66,147.31,154.49,15.238629341125488,16.575763702392578
200292985,-1.35,-0.6900000000000001,3.37,2.93,147.31,154.32,15.199437141418457,16.89413833618164
200392911,-1.35,-0.66,3.46,3.37,147.31,154.03,15.129683494567871,17.786767959594727
200492904,-1.29,-0.99,3.46,2.82,147.31,153.88,15.118789672851562,18.384138107299805
200592944,-1.23,-0.98,3.5300000000000002,2.63,147.31,153.63,15.144208908081055,17.961862564086914
200692927,-1.17,-0.62,3.65,2.63,147.3,153.35,15.145903587341309,17.67673110961914
200792952,-1.1,-0.41000000000000003,3.81,2.67,147.3,153.15,15.143424034118652,17.65203285217285
200892844,-1.11,-0.36,3.91,2.68,147.3,153.17000000000002,15.138582229614258,17.597618103027344
200992892,-1.21,-0.77,4.07,2.72,147.3,153.45000000000002,15.147990226745605,17.559667587280273
201092907,-1.23,-0.8300000000000001,4.1,3.13,147.29,153.8,15.152804374694824,17.55364418029785
201192897,-1.06,-0.61,3.89,3.29,147.3,154.24,15.164183616638184,17.145021438598633
201292870,-0.89,-0.66,3.66,2.99,147.3,154.66,15.19632339477539,16.707887649536133
201392868,-0.8300000000000001,-0.32,3.35,2.79,147.31,154.85,15.197230339050293,16.655479431152344
201492901,-0.8200000000000001,-0.41000000000000003,3.15,2.4,147.31,154.94,15.192628860473633,16.549461364746094
201592958,-0.81,-0.32,3.06,2.34,147.31,154.88,15.203646659851074,16.40227699279785
201692946,-0.81,-0.27,3.0500000000000003,2.49,147.31,154.70000000000002,15.197108268737793,16.711902618408203
201792884,-1.01,-0.09,3.02,2.72,149.38,156.5,15.207237243652344,16.352210998535156
201892927,-1.1500000000000001,-0.27,3.0,2.81,149.39000000000001,155.18,15.19438648223877,16.2311954498291
201992973,-1.2,-0.85,2.84,2.72,149.39000000000001,153.92000000000002,15.17410945892334,16.547853469848633
202092907,-1.04,-1.04,2.71,2.43,149.39000000000001,153.58,15.17883014678955,16.81170082092285
202192972,-0.91,-0.65,2.54,2.35,149.39000000000001,153.89000000000001,15.161943435668945,16.841217041015625
202292939,-0.84,-0.6900000000000001,2.39,2.13,149.4,154.54,15.170296669006348,16.773548126220703
202392853,-0.96,-0.88,2.34,2.0,149.4,155.38,15.153107643127441,16.862903594970703
202492856,-1.05,-1.03,2.35,2.0100000000000002,149.4,155.94,15.14503002166748,17.12282371520996
202592929,-1.06,-0.9,2.44,2.08,149.39000000000001,156.27,15.147417068481445,17.046632766723633
202692872,-1.02,-0.9500000000000001,2.5500000000000003,2.21,149.39000000000001,156.42000000000002,15.163516998291016,16.77013397216797
202792957,-1.01,-0.74,2.38,2.34,149.4,156.32,15.159704208374023,16.704875946044922
202892970,-0.9500000000000001,-1.05,2.15,1.93,149.4,156.24,15.165938377380371,16.602670669555664
202992881,-0.84,-0.81,1.8800000000000001,1.84,149.4,155.94,15.192388534545898,16.331594467163086
203092916,-0.71,-0.6,1.75,1.53,149.41,155.61,15.202012062072754,15.998674392700195
203192959,-0.58,-0.29,1.97,1.73,149.4,155.15,15.208246231079102,15.768338203430176
203292951,-0.46,-0.37,2.21,2.0300000000000002,149.4,154.87,15.188817977905273,16.10670280456543
203392910,-0.23,0.02,2.31,2.4,149.4,154.44,15.170417785644531,16.460906982421875
203492887,0.0,0.15,2.32,2.43,149.4,154.21,15.1715669631958,16.510906219482422
203592941,0.27,0.32,2.25,2.4,149.4,153.98,15.17441177368164,16.4036808013916
203692882,0.52,0.73,2.17,2.16,149.4,153.9,15.162004470825195,16.645238876342773
203793007,0.48,0.78,2.0,1.95,149.4,154.02,15.144573211669922,16.705278396606445
203892940,0.34,0.62,1.87,1.77,149.4,154.15,15.139429092407227,16.593233108520508
203992908,0.4,0.1,1.86,1.77,149.4,154.33,15.146307945251465,16.68107032775879
204092851,0.6,0.54,1.8900000000000001,2.09,149.4,154.35,15.140154838562012,16.662508010864258
204192865,1.11,0.71,1.78,1.93,149.4,154.39000000000001,15.151654243469238,16.6530704498291
204292969,1.59,1.41,1.67,1.68,149.39000000000001,154.37,15.146025657653809,16.642227172851562
204392870,1.97,1.67,1.49,1.56,149.39000000000001,154.4,15.127384185791016,16.938201904296875
204492885,2.19,2.07,1.35,1.43,149.38,154.3,15.119938850402832,17.021934509277344
204593009,2.38,2.13,1.25,1.31,149.38,154.35,15.119213104248047,17.206666946411133
204693068,2.44,2.54,1.18,1.41,149.38,154.26,15.11086654663086,17.19488525390625
204792972,2.46,2.56,1.01,1.44,149.37,154.26,15.123207092285156,17.055667877197266
204893020,2.35,2.5500000000000003,0.86,1.31,149.36,154.16,15.101478576660156,17.1733341217041
204992966,2.24,2.15,0.78,1.18,149.36,154.20000000000002,15.103657722473145,17.21710968017578
205092885,2.11,2.11,0.78,1.23,149.36,154.07,15.098029136657715,17.26168441772461
205192906,1.99,1.84,1.03,1.44,149.37,153.89000000000001,15.08556079864502,17.267507553100586
205292928,1.86,1.69,1.28,2.02,149.38,153.65,15.083442687988281,17.348026275634766
205392923,1.8,1.57,1.59,2.2,149.39000000000001,153.32,15.103066444396973,17.23705291748047
205492911,1.71,1.58,1.83,2.41,149.39000000000001,152.96,15.150443077087402,16.487010955810547
205592882,1.4000000000000001,1.34,2.17,2.5100000000000002,149.4,152.63,15.206369400024414,15.369778633117676
205692867,1.08,1.12,2.44,2.93,149.41,152.36,15.304783821105957,13.865410804748535
205792967,0.92,1.0,2.61,3.13,149.41,152.12,15.427953720092773,11.772507667541504
205892886,0.79,1.01,2.68,3.19,149.41,151.92000000000002,15.560747146606445,9.482420921325684
205992856,0.59,1.05,2.8000000000000003,3.2600000000000002,149.41,151.69,15.632287979125977,7.947732925415039
206092889,0.38,0.84,2.91,3.29,149.41,151.44,15.528560638427734,9.398844718933105
206192899,0.13,0.61,3.02,3.27,149.42000000000002,151.12,15.430131912231445,11.16871166229248
206292947,-0.1,0.28,3.09,3.15,149.42000000000002,150.89000000000001,15.390912055969238,12.066071510314941
206392992,-0.26,-0.05,3.34,3.11,149.41,150.73,15.361920356750488,12.527502059936523
206492941,-0.35000000000000003,-0.21,3.5300000000000002,3.37,149.41,150.71,15.330810546875,13.107805252075195
206592998,-0.43,-0.26,3.58,3.37,149.41,150.82,15.285416603088379,13.885088920593262
206692961,-0.49,-0.28,3.5100000000000002,3.27,149.41,151.11,15.258784294128418,14.314993858337402
206792900,-0.58,-0.45,3.34,3.0100000000000002,149.42000000000002,151.56,15.236087799072266,14.579442977905273
206892928,-0.62,-0.77,3.18,2.7800000000000002,149.42000000000002,152.03,15.219409942626953,14.875685691833496
206992966,-0.54,-0.61,3.27,2.68,149.42000000000002,152.5,15.220653533935547,14.866984367370605
207092871,-0.42,-0.48,3.42,2.73,149.41,152.94,15.2144193649292,14.973808288574219
207192870,-0.37,-0.42,3.5,2.83,149.41,153.29,15.213330268859863,14.995896339416504
207292896,-0.32,-0.4,3.49,3.0100000000000002,149.41,153.49,15.221924781799316,14.98043441772461
207392902,-0.3,-0.22,3.46,2.94,149.41,153.59,15.216719627380371,14.779234886169434
207492868,-0.26,-0.43,3.39,2.96,149.41,153.59,15.224042892456055,14.984450340270996
207593042,-0.29,-0.23,3.37,2.87,149.42000000000002,153.4,15.22519302368164,14.747176170349121
207692876,-0.32,-0.16,3.33,2.96,149.42000000000002,153.22,15.227917671203613,14.675223350524902
207792905,-0.36,-0.25,3.21,2.96,149.42000000000002,153.01,15.235361099243164,14.480049133300781
207892945,-0.37,-0.29,3.08,2.74,149.42000000000002,152.70000000000002,15.244319915771484,14.428243637084961
207992913,-0.42,-0.26,2.99,2.64,149.42000000000002,152.51,15.238691329956055,14.303547859191895
208092916,-0.41000000000000003,-0.5,2.93,2.57,149.42000000000002,152.38,15.253640174865723,14.23788833618164
208192901,-0.41000000000000003,-0.33,2.9,2.42,149.42000000000002,152.26,15.234332084655762,14.331459999084473
208292911,-0.37,-0.28,2.9,2.47,149.42000000000002,152.1,15.250492095947266,14.336077690124512
208392919,-0.35000000000000003,-0.08,2.87,2.37,149.42000000000002,152.06,15.244763374328613,14.219080924987793
208493042,-0.33,-0.12,2.81,2.48,149.42000000000002,151.99,15.247950553894043,14.347723960876465
208592953,-0.31,-0.05,2.74,2.38,149.42000000000002,151.96,15.240022659301758,14.325435638427734
208692858,-0.25,0.1,2.68,2.37,149.42000000000002,151.93,15.23051929473877,14.45836353302002
208792870,-0.19,0.2,2.63,2.25,149.42000000000002,151.98,15.232396125793457,14.378645896911621
208892906,-0.07,0.07,2.59,2.31,149.42000000000002,152.12,15.22603988647461,14.497117042541504
208992961,0.11,0.08,2.5500000000000003,2.32,149.42000000000002,152.3,15.210484504699707,14.67944049835205
209092982,0.32,0.34,2.49,2.5500000000000003,149.42000000000002,152.45000000000002,15.203470230102539,14.859845161437988
209192865,0.45,0.4,2.39,2.12,149.42000000000002,152.53,15.205582618713379,14.79088306427002
209292898,0.55,0.43,2.32,2.13,149.42000000000002,152.64000000000001,15.21066665649414,14.837065696716309
209392953,0.63,0.63,2.33,2.25,149.42000000000002,152.62,15.197532653808594,14.94188117980957
209492964,0.6900000000000001,0.71,2.34,2.32,149.42000000000002,152.64000000000001,15.191661834716797,15.09970760345459
209592936,0.76,0.87,2.24,2.29,149.42000000000002,152.66,15.200438499450684,14.992682456970215
209692943,0.78,1.04,2.15,1.98,149.42000000000002,152.51,15.210122108459473,14.818190574645996
209792957,0.73,1.12,2.1,1.98,149.42000000000002,152.46,15.186214447021484,15.032841682434082
209892882,0.67,0.9500000000000001,2.08,1.93,149.41,152.49,15.191971778869629,14.864306449890137
209992938,0.61,0.76,2.12,1.77,149.42000000000002,152.48,15.191238403320312,14.818592071533203
210092913,0.63,0.44,2.21,1.82,149.42000000000002,152.56,15.206793785095215,14.746505737304688
210192860,0.74,0.54,2.3000000000000003,1.97,149.42000000000002,152.5,15.195474624633789,14.907946586608887
210292986,0.8300000000000001,0.9500000000000001,2.36,2.2,149.42000000000002,152.36,15.209033012390137,14.761364936828613
210392849,0.84,0.9500000000000001,2.32,2.3000000000000003,149.42000000000002,152.28,15.223196029663086,14.303547859191895
210492891,0.8,0.87,2.24,2.5100000000000002,149.42000000000002,152.15,15.222227096557617,14.429849624633789
210592992,0.78,0.8300000000000001,2.08,2.56,149.41,152.06,15.211944580078125,14.586315155029297
210692877,0.77,0.81,1.96,2.29,149.41,151.92000000000002,15.205582618713379,14.512779235839844
210792881,0.77,0.66,1.95,2.17,149.41,151.87,15.196805953979492,14.716788291931152
210892845,0.8,0.65,1.98,2.4,149.41,151.73,15.191238403320312,14.851923942565918
210992932,0.8300000000000001,0.89,1.95,2.35,149.41,151.58,15.184398651123047,14.99730110168457
211092909,0.84,0.91,1.93,2.17,149.41,151.45000000000002,15.189120292663574,14.847707748413086
211193021,0.8,0.77,1.98,2.04,149.41,151.36,15.178709030151367,15.024208068847656
211292894,0.75,0.81,2.06,2.11,149.41,151.14000000000001,15.172670364379883,15.087191581726074
211392898,0.7000000000000001,0.76,2.14,2.23,149.41,151.02,15.169569969177246,15.048906326293945
211492897,0.67,0.56,2.17,2.34,149.42000000000002,150.95000000000002,15.175501823425293,15.124405860900879
211592957,0.61,0.46,2.21,2.31,149.42000000000002,150.82,15.160370826721191,15.261147499084473
211692870,0.56,0.5700000000000001,2.2,2.66,149.42000000000002,150.67000000000002,15.161035537719727,15.395079612731934
211792885,0.47000000000000003,0.75,2.22,2.46,149.42000000000002,150.49,15.160430908203125,15.301506996154785
211892938,0.35000000000000003,0.67,2.27,2.22,149.42000000000002,150.44,15.153107643127441,15.3085355758667
211992850,0.26,0.42,2.37,2.06,149.42000000000002,150.44,15.161762237548828,15.17199420928955
212092943,0.22,0.45,2.48,2.21,149.42000000000002,150.47,15.167155265808105,15.138952255249023
212192856,0.24,0.48,2.5500000000000003,2.43,149.42000000000002,150.68,15.17544174194336,15.028424263000488
212292856,0.25,0.37,2.58,2.52,149.42000000000002,150.94,15.16127872467041,15.142075538635254
212392908,0.22,0.47000000000000003,2.64,2.56,149.42000000000002,151.15,15.174957275390625,15.007943153381348
212492908,0.16,0.62,2.73,2.39,149.42000000000002,151.37,15.190632820129395,14.817989349365234
212592997,0.11,0.58,2.8000000000000003,2.48,149.42000000000002,151.71,15.171082496643066,14.988265037536621
212692983,0.07,0.41000000000000003,2.84,2.71,149.42000000000002,151.99,15.166362762451172,14.965576171875
212792915,0.07,0.23,2.84,2.6,149.42000000000002,152.20000000000002,15.170385360717773,14.93748664855957
212892957,0.14,0.06,2.84,2.5100000000000002,149.42000000000002,152.47,15.182825088500977,14.82260799407959
212992935,0.26,0.29,2.86,2.5100000000000002,149.42000000000002,152.62,15.183429718017578,14.765783309936523
213092921,0.36,0.43,2.88,2.72,149.42000000000002,152.72,15.174593925476074,14.880237579345703
213192916,0.43,0.6900000000000001,2.82,2.83,149.42000000000002,152.82,15.16817855834961,14.771003723144531
213292950,0.46,0.61,2.7600000000000002,2.63,149.42000000000002,152.96,15.209274291992188,14.420613288879395
213392935,0.48,0.49,2.73,2.41,149.19,153.1,15.205582618713379,14.193913459777832
213492874,0.45,0.5,2.7600000000000002,2.29,147.87,152.93,15.212549209594727,14.358744621276855
213592999,0.43,0.4,2.8000000000000003,2.73,146.09,152.16,15.206491470336914,14.476635932922363
213692852,0.37,0.63,2.75,3.13,143.82,150.52,15.18875789642334,14.468805313110352
213792887,0.28,0.47000000000000003,2.68,2.81,140.81,148.04,15.188878059387207,14.48788070678711
213892945,0.14,0.18,2.68,2.49,137.85,144.8,15.180950164794922,14.66658878326416
213992873,0.0,0.21,2.77,2.4,135.09,141.15,15.192326545715332,14.600326538085938
214092932,-0.18,0.0,2.84,2.65,132.36,137.41,15.190391540527344,14.553540229797363
214192930,-0.4,0.07,2.88,2.79,129.63,133.66,15.200438499450684,14.333667755126953
214292903,-0.63,-0.11,2.83,2.7600000000000002,126.9,130.17000000000002,15.208516120910645,14.315909385681152
214392899,-0.85,-0.17,2.74,2.7800000000000002,124.17,126.73,15.19759464263916,14.487679481506348
214492892,-1.09,-0.42,2.65,2.5500000000000003,121.44,123.28,15.20715618133545,14.339692115783691
214592941,-1.32,-0.5700000000000001,2.5500000000000003,2.39,118.53,119.76,15.211575508117676,14.222427368164062
214692913,-1.5,-0.7000000000000001,2.48,2.42,115.56,116.09,15.205945014953613,14.407561302185059
214793081,-1.68,-0.8300000000000001,2.41,2.45,112.46000000000001,112.44,15.198681831359863,14.332061767578125
214892904,-1.82,-1.19,2.29,2.45,108.87,108.79,15.189953804016113,14.588993072509766
214992851,-1.93,-1.45,2.16,2.27,104.78,105.05,15.179919242858887,14.679641723632812
215092828,-1.95,-1.6,2.02,2.15,100.64,101.09,15.183127403259277,14.469205856323242
215192899,-1.82,-1.6600000000000001,1.95,2.17,96.3,96.86,15.199771881103516,14.511373519897461
215292859,-1.7,-1.44,1.9000000000000001,1.98,91.53,92.7,15.18427848815918,14.639681816101074
215392920,-1.6300000000000001,-1.21,1.83,2.07,86.3,88.11,15.184761047363281,14.690485000610352
215492918,-1.6500000000000001,-1.1,1.7,2.08,80.8,83.10000000000001,15.190028190612793,14.551131248474121
215592905,-1.68,-1.21,1.55,1.81,75.13,77.82000000000001,15.197957038879395,14.60550308227539
215693027,-1.73,-1.08,1.4000000000000001,1.99,69.11,72.14,15.189120292663574,14.673816680908203
215792979,-1.82,-1.09,1.26,1.99,62.99,66.2,15.17689323425293,14.873007774353027
215892905,-1.94,-1.17,1.05,1.7,56.88,60.04,15.176530838012695,14.7930908203125
215992923,-2.07,-1.32,0.85,1.82,50.76,53.81,15.18300724029541,14.675625801086426
216092867,-2.09,-1.45,0.66,1.85,44.64,47.47,15.198925018310547,14.712973594665527
216192882,-2.11,-1.34,0.34,1.94,38.53,41.12,15.18010139465332,14.81176471710205
216292929,-2.1,-1.33,-0.04,1.68,32.42,34.79,15.164305686950684,15.106334686279297
216392871,-2.07,-1.56,-0.45,1.22,26.310000000000002,28.48,15.164734840393066,15.040115356445312
216492869,-1.96,-1.6400000000000001,-0.8300000000000001,1.01,20.2,22.23,15.16369915008545,15.0930814743042
216593016,-1.8,-1.6,-1.16,0.9,13.91,15.97,15.156193733215332,15.05272102355957
216692841,-1.56,-1.52,-1.5,0.8,7.51,9.48,15.14645004272461,15.269983291625977
216792989,-1.24,-1.47,-1.87,0.65,1.01,2.94,15.125326156616211,15.526199340820312
216892964,-0.84,-1.19,-2.13,0.24,354.51,356.27,15.12744426727295,15.568567276000977
216992840,-0.49,-0.85,-2.3000000000000003,-0.01,348.01,349.54,15.123812675476074,15.55370807647705
217092895,-0.16,-0.5700000000000001,-2.4,-0.09,341.51,342.79,15.132649421691895,15.515958786010742
217192879,0.13,-0.19,-2.44,-0.34,335.01,336.0,15.132522583007812,15.327478408813477
217292952,0.37,0.14,-2.4,-0.55,328.5,329.24,15.111042022705078,15.570374488830566
217392903,0.55,0.14,-2.2800000000000002,-0.8,322.12,322.57,15.114371299743652,15.535636901855469
217493025,0.75,0.14,-2.05,-0.91,316.0,316.07,15.142455101013184,15.443471908569336
217592925,0.9,0.59,-1.81,-0.56,310.3,309.94,15.13186264038086,15.241268157958984
217692903,0.91,0.76,-1.6400000000000001,-0.36,306.94,304.36,15.122360229492188,15.240466117858887
217792945,0.8300000000000001,0.78,-1.6,-0.27,306.2,300.14,15.12375259399414,15.286046981811523
217892923,0.7000000000000001,1.0,-1.53,-0.5,306.2,298.0,15.127276420593262,15.355365753173828
217992887,0.49,1.02,-1.47,-0.58,306.2,297.58,15.134465217590332,15.005935668945312
218092877,0.3,0.65,-1.36,-0.51,306.2,298.28000000000003,15.149656295776367,14.935053825378418
218192861,0.19,0.31,-1.35,-0.58,306.2,299.68,15.160188674926758,14.975415229797363
218292903,0.1,0.38,-1.3900000000000001,-0.23,306.2,301.42,15.137613296508789,15.055733680725098
218392931,0.04,0.0,-1.57,-0.28,306.2,303.2,15.12950325012207,15.19127082824707
218492862,0.03,-0.3,-1.74,-0.41000000000000003,306.2,304.81,15.147054672241211,14.95654010772705
218592932,0.1,-0.59,-1.9100000000000001,-0.75,306.2,306.19,15.144694328308105,14.892194747924805
218692910,0.25,-0.63,-2.0,-0.96,306.2,307.35,15.148568153381348,14.887665748596191
218792923,0.37,-0.56,-2.09,-0.93,306.2,308.3,15.142877578735352,14.86055850982666
218892921,0.47000000000000003,-0.54,-2.1,-1.11,306.2,308.96,15.163516998291016,14.830239295959473
218992960,0.55,-0.2,-2.07,-1.01,306.2,309.40000000000003,15.20025634765625,14.365594863891602
219092900,0.52,0.31,-2.05,-0.71,306.2,309.57,15.215993881225586,13.99311637878418
219192906,0.43,0.64,-2.11,-0.68,306.2,309.42,15.209759712219238,13.837499618530273
219292968,0.29,0.55,-2.18,-0.84,306.2,309.09000000000003,15.209759712219238,13.896132469177246
219392820,0.11,0.22,-2.21,-0.89,306.2,308.58,15.199369430541992,13.92569351196289
219492852,0.05,-0.03,-2.17,-0.87,306.2,307.95,15.213510513305664,13.885891914367676
219592999,0.09,0.07,-2.16,-0.96,306.2,307.38,15.205402374267578,13.90356159210205
219692955,0.12,0.17,-2.14,-0.97,306.2,306.90000000000003,15.202798843383789,13.934082984924316
219792892,0.11,0.03,-2.08,-1.05,306.2,306.54,15.20195198059082,13.906373023986816
219892895,0.1,0.06,-2.0,-1.04,306.2,306.26,15.218596458435059,13.890109062194824
219992864,-0.19,-0.03,-1.99,-0.96,306.2,306.15000000000003,15.189300537109375,13.910388946533203
220092865,-0.64,-0.68,-1.98,-0.87,306.2,306.04,15.205422401428223,13.937965393066406
220193011,-0.85,-0.96,-2.0100000000000002,-1.02,306.2,306.03000000000003,15.193537712097168,14.080263137817383
220292903,-0.89,-1.0,-2.0,-1.06,306.2,306.13,15.176712989807129,14.301541328430176
220392930,-0.47000000000000003,-0.6,-2.0100000000000002,-0.9400000000000001,306.2,306.21,15.193477630615234,14.248329162597656
220492941,-0.14,0.0,-1.99,-1.21,306.2,306.41,15.188695907592773,14.120823860168457
220592969,0.01,-0.03,-1.95,-1.3800000000000001,306.2,306.49,15.192873001098633,14.001953125
220692939,0.1,0.01,-1.87,-1.33,306.2,306.51,15.193175315856934,14.245317459106445
220792948,-0.18,-0.01,-1.72,-1.42,306.2,306.51,15.166060447692871,14.427641868591309
220892912,-1.8800000000000001,-1.59,-1.56,-1.36,306.2,306.51,15.143686294555664,14.568243026733398
220992865,-3.38,-3.79,-1.3900000000000001,-1.16,306.19,306.54,15.161096572875977,14.593498229980469
221092989,-4.0200000000000005,-4.55,-1.2,-1.01,306.18,306.5,15.159401893615723,14.698114395141602
221192851,-3.92,-4.28,-1.12,-0.6900000000000001,306.17,306.43,15.15807056427002,14.681246757507324
221292855,-3.3000000000000003,-3.46,-1.07,-0.6900000000000001,306.17,306.38,15.153833389282227,14.732048988342285
221392871,-2.54,-2.54,-1.0,-0.66,306.16,306.38,15.151049613952637,14.688676834106445
221492850,-1.05,-1.1300000000000001,-0.91,-0.61,306.16,306.44,15.184761047363281,14.696307182312012
221592897,-0.12,0.51,-0.87,-0.73,306.16,306.49,15.137833595275879,14.710586547851562
221692921,0.26,0.56,-0.8300000000000001,-0.84,306.16,306.51,15.146267890930176,14.811363220214844
221792907,0.43,0.58,-0.75,-0.87,306.16,306.49,15.151714324951172,14.697110176086426
221892931,0.52,0.64,-0.65,-0.86,306.16,306.42,15.137733459472656,14.926820755004883
221992991,0.55,0.75,-0.55,-0.75,306.16,306.3,15.147539138793945,14.918588638305664
222092928,0.55,0.7000000000000001,-0.48,-0.5700000000000001,306.16,306.18,15.166543006896973,14.609161376953125
222192904,0.46,0.77,-0.47000000000000003,-0.59,306.16,306.1,15.165090560913086,14.485269546508789
222292908,0.35000000000000003,0.8200000000000001,-0.46,-0.59,306.16,306.0,15.160161018371582,14.468291282653809
222392912,0.35000000000000003,0.61,-0.43,-0.73,306.16,305.93,15.167634010314941,14.40234088897705
222492903,0.89,0.8300000000000001,-0.35000000000000003,-0.73,306.17,305.81,15.17852783203125,14.352744102478027
222592995,1.69,1.84,-0.25,-0.48,306.17,305.75,15.1788911819458,14.190901756286621
222692861,2.39,2.58,-0.2,-0.37,306.17,305.72,15.189180374145508,13.997132301330566
222792849,2.94,3.08,-0.2,-0.55,306.17,305.7,15.186033248901367,13.948339462280273
222892982,3.2600000000000002,3.3200000000000003,-0.17,-0.62,306.17,305.66,15.183671951293945,14.014200210571289
222992903,3.45,3.35,-0.13,-0.53,306.17,305.7,15.177377700805664,14.190701484680176
223092900,3.5,3.37,-0.09,-0.26,306.18,305.81,15.174552917480469,14.301407814025879
223192919,3.31,3.36,-0.1,-0.22,306.18,305.93,15.169086456298828,14.167007446289062
223292899,3.14,2.88,-0.11,-0.19,306.17,306.04,15.171749114990234,14.302143096923828
223392918,3.0700000000000003,2.75,-0.12,-0.19,306.17,306.2,15.176833152770996,14.231864929199219
223492915,3.06,2.82,-0.15,-0.12,306.17,306.25,15.16708755493164,14.356558799743652
223593016,3.0300000000000002,2.7800000000000002,-0.21,-0.17,306.17,306.35,15.162185668945312,14.57402229309082
223692937,2.74,2.61,-0.3,-0.12,306.16,306.47,15.161096572875977,14.415994644165039
223793028,1.37,1.33,-0.43,-0.2,306.16,306.54,15.152897834777832,14.16999626159668
223892880,0.51,-0.11,-0.58,-0.19,306.16,306.58,15.186033248901367,14.08066463470459
223992897,0.13,-0.33,-0.63,-0.33,306.16,306.63,15.158977508544922,14.295516967773438
224092912,-0.02,-0.47000000000000003,-0.68,-0.23,306.16,306.67,15.168783187866211,14.276843070983887
224192944,-0.07,-0.5,-0.86,-0.23,306.16,306.72,15.182099342346191,14.023637771606445
224292881,-0.03,-0.29,-1.07,-0.43,306.16,306.79,15.186576843261719,13.87243938446045
224392846,0.06,-0.08,-1.23,-0.74,306.16,306.93,15.196805953979492,13.828463554382324
224492949,0.16,0.03,-1.35,-0.89,306.16,306.99,15.198803901672363,13.70376968383789
224592968,0.25,0.08,-1.96,-0.91,306.16,306.96,15.215306282043457,13.736274719238281
224693016,0.37,0.36,-3.7600000000000002,-2.5,306.15000000000003,306.98,15.195474624633789,13.64272689819336
224792915,0.33,0.47000000000000003,-4.37,-4.7,306.14,307.03000000000003,15.15952205657959,14.073636054992676
224892874,0.27,-0.03,-3.1,-3.58,306.15000000000003,307.2,15.19583797454834,13.913601875305176
224992919,0.35000000000000003,-0.16,-2.17,-1.31,306.15000000000003,307.19,15.241414070129395,13.323259353637695
225092933,0.39,0.67,-1.83,-0.6,306.15000000000003,307.1,15.206127166748047,13.664212226867676
225192912,0.35000000000000003,0.8,-1.8800000000000001,-0.93,306.15000000000003,307.1,15.20618724822998,13.565019607543945
225292961,0.22,0.67,-1.99,-1.06,306.15000000000003,307.04,15.189684867858887,13.654841423034668
225392881,0.11,0.17,-1.1500000000000001,-0.8,306.16,306.93,15.2001953125,13.75838565826416
225492931,0.05,0.22,0.52,1.34,306.16,306.77,15.19027042388916,14.194314956665039
225592990,0.1,0.22,-0.37,2.02,306.16,306.63,15.186335563659668,13.783886909484863
225692915,0.15,0.19,-1.44,-0.49,306.15000000000003,306.47,15.193175315856934,13.699753761291504
225792842,0.14,0.1,-2.0,-1.92,306.15000000000003,306.54,15.18445873260498,13.991511344909668
225892953,0.18,0.16,-2.12,-1.9000000000000001,306.15000000000003,306.53000000000003,15.18893814086914,13.928058624267578
225992829,0.23,0.24,-2.02,-1.84,306.15000000000003,306.59000000000003,15.174688339233398,14.11198902130127
226092886,0.25,0.54,-1.87,-1.8800000000000001,306.15000000000003,306.52,15.13180160522461,14.689681053161621
226192861,0.09,0.13,-1.67,-1.9100000000000001,306.15000000000003,306.45,15.120362281799316,14.95654010772705
226292876,-0.05,-0.12,-1.45,-1.7,306.15000000000003,306.35,15.147054672241211,14.729036331176758
226392866,0.0,-0.01,-1.25,-1.52,306.15000000000003,306.21,15.15807056427002,14.362784385681152
226492953,0.05,0.12,-1.1,-1.43,306.15000000000003,306.18,15.146932601928711,14.58165168762207
226592951,-0.1,-0.01,-0.97,-1.32,306.15000000000003,306.11,15.12950325012207,14.837667465209961
226692967,-0.76,-0.39,-0.88,-1.27,306.15000000000003,306.1,15.114673614501953,14.907946586608887
226792906,-1.04,-0.9400000000000001,-0.76,-1.4000000000000001,306.15000000000003,306.09000000000003,15.105622291564941,15.230202674865723
226892931,-1.02,-1.05,-0.61,-1.32,306.15000000000003,305.97,15.086953163146973,15.372589111328125
226992893,-0.9400000000000001,-1.2,-0.48,-1.07,306.15000000000003,305.86,15.085500717163086,15.444676399230957
227092923,-0.79,-0.99,-0.38,-0.68,306.15000000000003,305.78000000000003,15.092097282409668,15.552103042602539
227192923,-0.59,-0.73,-0.36,-0.65,306.15000000000003,305.8,15.092884063720703,15.3521089553833
227292922,-0.41000000000000003,-0.59,-0.39,-0.67,306.15000000000003,305.84000000000003,15.090161323547363,15.404516220092773
227393004,-0.32,-0.63,-0.42,-0.8200000000000001,306.15000000000003,305.92,15.092761993408203,15.47379207611084
227492855,-0.25,-0.39,-0.42,-0.8,306.15000000000003,306.0,15.103066444396973,15.34287166595459
227592899,-0.24,-0.19,-0.38,-0.79,306.15000000000003,306.22,15.118789672851562,15.057539939880371
227692870,-0.31,-0.03,-0.35000000000000003,-0.71,306.15000000000003,306.48,15.109710693359375,15.068181991577148
227792877,-0.38,-0.13,-0.34,-0.66,306.15000000000003,306.7,15.106502532958984,15.242876052856445
227892855,-0.45,-0.1,-0.35000000000000003,-0.54,306.15000000000003,306.88,15.098392486572266,15.24267578125
227992915,-0.5,-0.05,-0.36,-0.61,306.15000000000003,306.89,15.112676620483398,15.18464469909668
228092914,-0.56,0.0,-0.37,-0.59,306.15000000000003,306.92,15.125568389892578,14.830438613891602
228192946,-0.66,-0.36,-0.34,-0.6900000000000001,306.15000000000003,306.82,15.110329627990723,14.684036254882812
228293014,-0.68,-0.81,-0.3,-0.8200000000000001,306.14,306.62,15.085016250610352,15.173399925231934
228392966,-0.49,-0.9400000000000001,-0.19,-0.8200000000000001,306.14,306.29,15.082595825195312,15.580414772033691
228492905,-0.27,-0.46,-0.13,-0.39,306.14,306.06,15.094578742980957,15.488248825073242
228592938,-0.16,-0.17,-0.19,-0.48,306.14,306.01,15.098875999450684,15.155328750610352
228692893,-0.13,-0.06,-0.32,-0.75,306.14,306.0,15.095788955688477,15.14970588684082
228792945,-0.14,-0.15,-0.45,-0.9,306.14,305.98,15.078600883483887,15.254321098327637
228892854,-0.11,-0.2,-0.52,-0.9400000000000001,306.14,305.97,15.093852996826172,15.356036186218262
228992865,-0.06,-0.01,-0.55,-1.09,306.14,306.02,15.094215393066406,15.268577575683594
229092857,-0.04,0.16,-0.54,-1.1400000000000001,306.14,306.2,15.093670845031738,15.218378067016602
229192942,-0.17,0.05,-0.5,-1.1400000000000001,306.14,306.36,15.097786903381348,15.070390701293945
229292883,-0.31,-0.19,-0.46,-1.04,306.14,306.56,15.094155311584473,15.224000930786133
229392879,-0.41000000000000003,-0.3,-0.38,-0.91,306.14,306.73,15.108379364013672,15.056334495544434
229492991,-0.47000000000000003,-0.3,-0.29,-0.76,306.14,306.87,15.11491584777832,14.902524948120117
229592927,-0.54,-0.4,-0.23,-0.64,306.14,306.96,15.101236343383789,14.991679191589355
229692914,-0.6,-0.6,-0.19,-0.56,306.14,306.96,15.115708351135254,14.883271217346191
229792932,-0.62,-0.68,-0.18,-0.47000000000000003,306.14,306.88,15.124417304992676,14.766986846923828
229892901,-0.61,-0.43,-0.22,-0.27,306.14,306.76,15.114190101623535,14.904131889343262
229992927,-0.61,-0.24,-0.34,-0.13,306.14,306.64,15.110074043273926,14.866181373596191
230093005,-0.62,-0.44,-0.51,-0.29,306.15000000000003,306.48,15.114068031311035,14.816784858703613
230192889,-0.61,-0.39,-0.68,-0.53,306.15000000000003,306.37,15.100873947143555,15.07059097290039
230292920,-0.59,-0.14,-0.79,-0.6,306.15000000000003,306.24,15.10287094116211,15.115570068359375
230392932,-0.68,-0.25,-0.84,-0.68,306.15000000000003,306.22,15.089213371276855,15.111510276794434
230492856,-0.77,-0.44,-0.9,-0.6,306.15000000000003,306.24,15.106865882873535,14.998104095458984
230592958,-0.81,-0.5700000000000001,-0.93,-1.01,306.15000000000003,306.2,15.10008716583252,15.016576766967773
230692806,-0.8300000000000001,-0.55,-0.88,-1.35,306.15000000000003,306.27,15.086105346679688,15.249099731445312
230792904,-0.86,-0.66,-0.75,-1.32,306.15000000000003,306.41,15.073213577270508,15.492667198181152
230892869,-0.9,-0.7000000000000001,-0.64,-0.98,306.15000000000003,306.52,15.075937271118164,15.484232902526855
230992905,-0.93,-0.9400000000000001,-0.65,-0.63,306.15000000000003,306.57,15.102023124694824,15.157938003540039
231092867,-0.87,-0.84,-0.78,-0.58,306.15000000000003,306.58,15.100753784179688,15.17199420928955
231192902,-0.79,-0.67,-0.93,-0.84,306.15000000000003,306.6,15.06749153137207,15.4791898727417
231292959,-0.76,-0.5700000000000001,-1.02,-0.93,306.15000000000003,306.66,15.071337699890137,15.52961254119873
231392939,-0.74,-0.6,-0.98,-1.04,306.15000000000003,306.68,15.078478813171387,15.455921173095703
231492895,-0.74,-0.48,-0.89,-0.9500000000000001,306.15000000000003,306.75,15.082655906677246,15.436041831970215
231593028,-0.74,-0.59,-0.84,-0.96,306.15000000000003,306.78000000000003,15.076542854309082,15.367569923400879
231692891,-0.74,-0.8300000000000001,-0.8200000000000001,-1.11,306.15000000000003,306.75,15.09028148651123,15.213960647583008
231792911,-0.64,-0.8300000000000001,-0.75,-1.19,306.15000000000003,306.74,15.10571575164795,14.9545316696167
231893021,-0.52,-0.66,-0.63,-0.96,306.15000000000003,306.6,15.115506172180176,14.886394500732422
231992863,-0.47000000000000003,-0.24,-0.52,-0.8300000000000001,306.15000000000003,306.41,15.105655670166016,14.917384147644043
232092866,-0.53,-0.38,-0.47000000000000003,-0.68,306.15000000000003,306.28000000000003,15.091917037963867,15.14127254486084
232192967,-0.58,-0.44,-0.43,-0.58,306.14,306.19,15.08562183380127,15.286850929260254
232292997,-0.62,-0.35000000000000003,-0.42,-0.5700000000000001,306.14,306.05,15.061774253845215,15.439455032348633
232392872,-0.58,-0.37,-0.42,-0.67,306.14,306.05,14.958639144897461,17.157873153686523
232492884,-0.55,-0.44,-0.41000000000000003,-0.76,306.14,306.14,14.85114574432373,19.17808723449707
232592907,-0.48,-0.45,-0.39,-0.72,306.14,306.25,14.862221717834473,19.3437442779541
232692883,-0.44,-0.13,-0.43,-0.44,306.14,306.58,14.88631820678711,18.61741828918457
232792978,-0.43,-0.31,-0.46,-0.46,306.15000000000003,306.85,14.93212890625,17.930740356445312
232892938,-0.42,-0.46,-0.46,-0.63,306.15000000000003,307.13,14.983453750610352,17.133777618408203
232992936,-0.48,-0.51,-0.42,-0.58,306.14,307.34000000000003,15.018438339233398,16.255895614624023
233092908,-0.5,-0.79,-0.37,-0.62,306.14,307.43,15.048276901245117,15.79466438293457
233192885,-0.33,-0.63,-0.37,-0.66,306.14,307.44,15.060805320739746,15.474996566772461
233292916,-0.16,-0.47000000000000003,-0.36,-0.74,306.14,307.41,15.068734169006348,15.46174430847168
233392909,-0.11,-0.34,-0.33,-0.74,306.14,307.38,15.099233627319336,15.047255516052246
233492945,-0.14,-0.25,-0.28,-0.73,306.14,307.34000000000003,15.115399360656738,14.74570369720459
233592967,-0.2,-0.11,-0.29,-0.66,306.14,307.25,15.095183372497559,14.806744575500488
233692947,-0.25,-0.23,-0.31,-0.75,306.14,307.05,15.123994827270508,14.380855560302734
233792895,-0.24,-0.56,-0.16,-0.8200000000000001,306.14,306.95,15.140880584716797,13.971833229064941
233892890,-0.16,-0.62,0.01,-0.6,306.14,306.74,15.098512649536133,14.724016189575195
233992860,-0.17,-0.41000000000000003,0.22,-0.42,306.14,306.62,15.067524909973145,15.383030891418457
234092842,-0.26,-0.3,0.36,-0.09,306.14,306.57,15.010058403015137,16.111923217773438
234192906,-0.37,-0.5,0.39,-0.05,306.14,306.57,14.950709342956543,17.176145553588867
234292928,-0.41000000000000003,-0.6900000000000001,0.35000000000000003,0.01,306.14,306.71,14.909733772277832,17.96306800842285
234392936,-0.26,-0.7000000000000001,0.33,0.16,306.14,306.88,14.91645336151123,17.990575790405273
234492945,-0.06,-0.52,0.26,0.39,306.14,307.0,14.938665390014648,17.655244827270508
234593027,0.07,-0.32,0.11,0.51,306.14,306.98,14.966144561767578,17.159881591796875
234692951,0.13,-0.13,-0.06,0.06,306.14,306.89,14.951375961303711,17.13658905029297
234792899,0.23,-0.29,-0.09,-0.23,306.14,306.73,14.956997871398926,17.286359786987305
234892913,0.36,0.15,-0.04,-0.12,306.14,306.66,14.975404739379883,16.989604949951172
234992910,0.47000000000000003,0.29,-0.03,-0.06,306.14,306.65000000000003,14.99561882019043,16.56130599975586
235092916,0.49,0.47000000000000003,-0.08,-0.27,306.14,306.66,15.008390426635742,16.330791473388672
235192958,0.46,0.56,-0.1,-0.44,306.14,306.71,15.008814811706543,16.164932250976562
235292884,0.41000000000000003,0.35000000000000003,-0.08,-0.42,306.14,306.75,15.038895606994629,15.64406681060791
235392887,0.36,0.15,0.02,-0.37,306.14,306.74,15.130470275878906,14.361980438232422
235492925,0.34,0.11,0.13,-0.27,306.14,306.71,15.25224781036377,12.24859619140625
235592931,0.19,0.1,0.25,-0.23,306.14,306.61,15.22848892211914,12.18567943572998
235692864,0.04,0.09,0.35000000000000003,-0.37,306.14,306.49,15.174351692199707,13.149770736694336
235793053,-0.05,-0.02,0.47000000000000003,-0.31,306.14,306.46,15.123692512512207,14.093315124511719
235892872,-0.1,-0.23,0.5700000000000001,-0.23,306.14,306.42,15.104564666748047,14.545307159423828
235992947,-0.06,-0.15,0.71,0.01,306.14,306.45,15.088042259216309,14.77200698852539
236092913,-0.02,-0.01,1.12,0.23,306.14,306.54,15.075150489807129,15.068181991577148
236192925,-0.04,-0.04,2.3000000000000003,1.36,306.14,306.73,15.076481819152832,15.110349655151367
236292912,-0.09,-0.01,3.52,3.21,306.14,306.93,15.059082984924316,15.427876472473145
236392983,-0.18,-0.02,4.21,4.29,306.14,307.11,15.05251407623291,15.511341094970703
236492888,-0.29,-0.05,4.28,4.28,306.14,307.3,15.057779312133789,15.441463470458984
236592963,-0.41000000000000003,-0.15,4.01,3.67,306.14,307.47,15.060442924499512,15.340462684631348
236692921,-0.55,-0.2,3.68,3.0500000000000003,306.14,307.67,15.06225872039795,15.340864181518555
236792886,-0.7000000000000001,-0.35000000000000003,3.38,2.6,306.15000000000003,307.83,15.05124282836914,15.366565704345703
236892862,-0.8,-0.55,3.14,2.2600000000000002,306.15000000000003,307.97,15.05535888671875,15.472587585449219
236992859,-0.85,-0.52,2.95,2.05,306.15000000000003,308.05,15.044356346130371,15.558839797973633
237092964,-0.87,-0.49,2.84,1.95,306.15000000000003,308.06,15.06256103515625,15.42961597442627
237192858,-0.87,-0.47000000000000003,2.79,2.0100000000000002,306.16,308.01,15.066313743591309,15.229622840881348
237292927,-0.88,-0.51,2.7600000000000002,2.05,306.16,307.91,15.065829277038574,15.260947227478027
237392889,-0.88,-0.5,2.7600000000000002,2.17,306.16,307.76,15.067402839660645,15.288455963134766
237492867,-0.88,-0.48,2.72,2.29,306.16,307.6,15.05935287475586,15.47559928894043
237592978,-0.9500000000000001,-0.53,2.62,2.39,306.16,307.40000000000003,15.041619300842285,15.513147354125977
237692895,-1.02,-0.66,2.5100000000000002,2.06,306.16,307.32,15.043078422546387,15.6112699508667
237792934,-1.05,-0.8200000000000001,2.42,1.79,306.16,307.36,15.049062728881836,15.471583366394043
237892936,-1.02,-0.92,2.4,1.77,306.16,307.46,15.029454231262207,15.747076034545898
237992907,-0.97,-0.87,2.5,1.6500000000000001,306.16,307.67,15.033024787902832,15.80269718170166
238092956,-0.9,-0.99,2.61,1.8800000000000001,306.16,307.92,15.032358169555664,15.828397750854492
238192977,-0.9,-0.9,2.64,1.99,306.16,308.2,15.028605461120605,15.750690460205078
238292863,-0.88,-0.9500000000000001,2.61,2.0300000000000002,306.16,308.45,15.042950630187988,15.619771003723145
238392879,-0.81,-1.0,2.6,2.22,306.16,308.65000000000003,15.031511306762695,15.681102752685547
238492918,-0.68,-1.0,2.57,2.43,306.16,308.82,15.036897659301758,15.641657829284668
238592937,-0.49,-0.87,2.54,2.43,306.16,308.97,15.037806510925293,15.672179222106934
238692863,-0.32,-0.53,2.52,2.3000000000000003,306.16,308.99,15.041497230529785,15.526199340820312
238792901,-0.16,-0.39,2.46,2.2800000000000002,306.16,309.02,15.047368049621582,15.439656257629395
238892891,-0.04,-0.39,2.38,2.18,306.16,309.12,15.0332670211792,15.612541198730469
238992876,0.04,-0.42,2.34,2.05,306.16,309.19,15.033629417419434,15.5350341796875
239093051,0.16,-0.33,2.32,1.98,306.16,309.32,15.040388107299805,15.527381896972656
239192937,0.3,-0.42,2.33,1.84,306.16,309.47,15.04500961303711,15.433833122253418
239292913,0.38,-0.02,2.27,1.8800000000000001,306.16,309.57,15.0266695022583,15.657320022583008
239392875,0.39,-0.07,2.2,1.6400000000000001,306.16,309.76,15.018921852111816,15.90731143951416
239492890,0.36,0.11,2.21,1.44,306.16,309.89,15.02461051940918,15.920965194702148
239592912,0.33,0.17,2.22,1.5,306.16,309.94,15.014261245727539,15.849481582641602
239692911,0.32,0.05,2.22,1.4000000000000001,306.16,309.93,15.014866828918457,15.898877143859863
239792952,0.27,0.21,2.2800000000000002,1.48,306.16,309.81,15.018800735473633,15.949076652526855
239892867,0.16,0.26,2.34,1.6300000000000001,306.16,309.68,15.016380310058594,15.856688499450684
239993019,0.03,0.21,2.37,1.86,306.16,309.48,15.031027793884277,15.629609107971191
240092902,-0.06,0.01,2.35,1.98,306.16,309.36,15.040892601013184,15.447286605834961
240192873,-0.12,0.02,2.35,1.8900000000000001,306.16,309.12,15.049911499023438,15.316567420959473
240292877,-0.17,0.12,2.32,1.76,306.16,309.01,15.05372428894043,15.30211067199707
240392848,-0.24,0.13,2.24,1.71,306.16,308.91,15.039682388305664,15.385642051696777
240492890,-0.34,0.14,2.15,1.78,306.16,308.81,15.056024551391602,15.397688865661621
240592982,-0.47000000000000003,-0.05,1.98,1.6600000000000001,306.16,308.78000000000003,15.054242134094238,15.225740432739258
240692935,-0.5700000000000001,-0.19,1.85,1.4000000000000001,306.16,308.78000000000003,15.046703338623047,15.316969871520996
240792958,-0.61,-0.21,1.8,1.3800000000000001,306.16,308.76,15.047005653381348,15.242072105407715
240892975,-0.6,-0.37,1.8900000000000001,1.55,306.16,308.82,15.058323860168457,15.26596736907959
240992973,-0.68,-0.46,2.1,1.8800000000000001,306.16,308.85,15.039440155029297,15.422187805175781
241092896,-0.78,-0.48,2.18,2.11,306.16,308.87,15.054268836975098,15.330020904541016
241192902,-0.81,-0.5,1.93,2.0300000000000002,306.16,308.85,15.049184799194336,15.271991729736328
241292925,-0.78,-0.53,1.6400000000000001,1.52,306.17,308.92,15.051605224609375,15.35391616821289
241392851,-0.73,-0.47000000000000003,1.21,1.24,306.17,308.93,15.050408363342285,15.321900367736816
241492842,-0.67,-0.36,0.56,0.7000000000000001,306.18,308.85,15.055419921875,15.349096298217773
241592903,-0.71,-0.34,0.0,-0.12,306.19,308.81,15.045372009277344,15.25291633605957
241692878,-0.78,-0.5,-0.29,-0.58,306.19,308.76,15.055237770080566,15.226410865783691
241793015,-0.9,-0.65,-0.34,-0.58,306.19,308.68,15.0477933883667,15.197896957397461
241892881,-0.9400000000000001,-0.71,-0.32,-0.33,306.19,308.51,15.051302909851074,15.212555885314941
241992880,-0.8300000000000001,-0.75,-0.33,-0.22,306.19,308.39,15.053482055664062,15.20793628692627
242092945,-0.7000000000000001,-0.48,-0.38,-0.28,306.19,308.2,15.051215171813965,15.379239082336426
242192902,-0.74,-0.42,-0.37,-0.42,306.19,307.98,15.039682388305664,15.301910400390625
242292955,-0.78,-0.66,-0.34,-0.29,306.19,307.8,15.06225872039795,15.204523086547852
242392898,-0.76,-0.55,-0.38,-0.16,306.19,307.57,15.056872367858887,15.061756134033203
242492910,-0.68,-0.52,-0.45,-0.36,306.19,307.41,15.064316749572754,15.112959861755371
242592948,-0.52,-0.33,-1.55,-0.74,306.2,307.22,15.062016487121582,15.184844970703125
242692991,-0.35000000000000003,-0.1,-3.84,-3.09,306.22,307.06,15.033387184143066,15.339859962463379
242792917,-0.2,-0.21,-4.95,-5.5,306.23,306.90000000000003,15.049062728881836,15.31877613067627
242892942,-0.11,0.0,-4.79,-5.3100000000000005,306.23,306.79,15.04500961303711,15.346686363220215
242992924,-0.12,-0.02,-4.04,-3.8200000000000003,306.23,306.62,15.051787376403809,15.298696517944336
243092845,-0.15,0.01,-3.4,-2.68,306.22,306.40000000000003,15.055237770080566,15.154324531555176
243192850,-0.24,-0.03,-2.99,-2.18,306.22,306.18,15.053906440734863,15.079829216003418
243292841,-0.31,-0.21,-2.68,-1.95,306.22,305.94,15.0549955368042,15.207535743713379
243392838,-0.39,-0.28,-2.3000000000000003,-1.73,306.22,305.65000000000003,15.056205749511719,15.1519136428833
243492898,-0.46,-0.29,-1.92,-1.29,306.22,305.43,15.065070152282715,15.002409934997559
243593002,-0.56,-0.44,-1.59,-0.85,306.21,305.18,15.067584991455078,14.989871978759766
243692892,-0.63,-0.42,-1.34,-0.6900000000000001,306.21,304.94,15.062499046325684,15.002521514892578
243792937,-0.74,-0.37,-1.17,-0.64,306.21,304.7,15.067887306213379,14.953327178955078
243892946,-0.86,-0.4,-1.01,-0.71,306.21,304.51,15.076542854309082,14.787067413330078
243992896,-0.97,-0.66,-0.84,-0.44,306.2,304.22,15.074241638183594,14.680645942687988
244092915,-1.03,-0.8200000000000001,-0.6900000000000001,-0.33,306.2,303.87,15.080114364624023,14.659360885620117
244192941,-1.01,-0.78,-0.61,-0.15,306.2,303.51,15.077268600463867,14.598318099975586
244292927,-0.93,-0.73,-0.56,-0.12,306.2,303.1,15.069642066955566,14.656594276428223
244392951,-0.8300000000000001,-0.97,-0.58,-0.14,306.2,302.69,15.039016723632812,15.043484687805176
244492971,-0.64,-1.05,-0.6,-0.23,306.2,302.28000000000003,15.03792667388916,15.342069625854492
244592971,-0.41000000000000003,-0.96,-0.64,0.09,306.2,301.89,15.034538269042969,15.272995948791504
244692845,-0.19,-0.8300000000000001,-0.73,0.23,306.2,301.7,15.043253898620605,15.285042762756348
244793028,-0.08,-0.5,-0.93,0.46,306.2,301.72,15.04367733001709,15.172797203063965
244892889,-0.03,-0.37,-1.1300000000000001,0.09,306.2,301.88,15.05414867401123,15.038665771484375
244992864,0.0,-0.34,-1.3,-0.33,306.2,302.3,15.070785522460938,14.829949378967285
245092849,0.05,-0.14,-1.37,-0.7000000000000001,306.2,302.84000000000003,15.070671081542969,14.734660148620605
245192904,0.09,-0.06,-1.36,-0.68,306.2,303.44,15.060261726379395,14.830239295959473
245292943,0.1,0.14,-1.32,-0.78,306.2,303.94,15.06225872039795,14.82080078125
245393005,0.11,0.12,-1.25,-0.81,306.2,304.41,15.066011428833008,14.903327941894531
245492938,0.1,0.17,-1.16,-0.72,306.2,304.79,15.060140609741211,15.007943153381348
245592988,0.08,0.19,-1.08,-0.67,306.2,305.13,15.055601119995117,15.006537437438965
245692889,0.05,0.0,-0.99,-0.73,306.2,305.34000000000003,15.063347816467285,14.876622200012207
245792916,0.04,-0.04,-0.91,-0.5700000000000001,306.2,305.52,15.069239616394043,14.903573036193848
245892920,0.03,-0.03,-0.8300000000000001,-0.53,306.2,305.69,15.054933547973633,14.892284393310547
245992930,0.0,-0.12,-0.75,-0.53,306.2,305.82,15.053057670593262,15.069587707519531
246092854,-0.03,-0.05,-0.68,-0.38,306.2,305.98,15.05566120147705,15.054929733276367
246192872,-0.1,-0.04,-0.65,-0.23,306.2,306.15000000000003,15.057597160339355,15.034850120544434
246293045,-0.17,-0.11,-0.66,-0.1,306.2,306.33,15.048942565917969,15.121593475341797
246392895,-0.24,-0.12,-0.67,-0.03,306.2,306.51,15.043313980102539,15.19669246673584
246492862,-0.28,-0.26,-0.67,-0.16,306.2,306.71,15.047382354736328,15.265007019042969
246592887,-0.26,-0.25,-0.62,-0.2,306.2,306.88,15.043010711669922,15.21054744720459
246692882,-0.24,-0.22,-0.53,-0.22,306.2,307.02,15.050820350646973,15.186653137207031
246792961,-0.25,-0.21,-0.47000000000000003,-0.19,306.2,307.1,15.045129776000977,15.219583511352539
246892961,-0.29,-0.21,-0.42,-0.21,306.2,307.07,15.051545143127441,15.146693229675293
246992942,-0.38,-0.22,-0.35000000000000003,-0.25,306.2,307.06,15.049184799194336,14.90935230255127
247092921,-0.46,-0.4,-0.28,-0.31,306.2,306.98,15.068069458007812,14.824817657470703
247192953,-0.49,-0.41000000000000003,-0.23,-0.1,306.2,306.88,15.07253360748291,14.760337829589844
247292914,-0.48,-0.4,-0.21,0.01,306.2,306.76,15.074726104736328,14.786664962768555
247392910,-0.49,-0.36,-0.24,0.1,306.2,306.66,15.074726104736328,14.69871711730957
247492907,-0.5,-0.47000000000000003,-0.28,0.05,306.2,306.48,15.079569816589355,14.70915699005127
247592952,-0.51,-0.52,-0.29,-0.02,306.2,306.32,15.079387664794922,14.619402885437012
