time,des_roll,roll,des_pitch,pitch,des_yaw,yaw,volt,curr
91136182,0.0,0.0,0.0,-0.01,346.33,346.33,16.115999221801758,0.0
91235705,0.0,0.0,0.0,-0.01,347.85,346.33,16.12175750732422,0.0
91336125,0.0,0.0,0.0,-0.01,352.07,346.33,16.12889862060547,0.0
91435645,0.0,0.0,0.0,-0.01,358.99,346.33,16.128173828125,0.0
91536224,0.0,0.0,0.0,-0.01,8.6,346.33,16.126903533935547,0.0
91635906,0.0,0.0,0.0,-0.01,13.33,346.33,16.128355026245117,0.0
91736161,0.0,0.0,0.0,-0.01,13.39,346.33,16.127023696899414,0.0
91835675,0.0,0.0,-0.01,-0.01,13.46,346.33,16.128637313842773,0.0
91936212,0.0,0.0,0.0,0.0,13.49,346.33,16.12750816345215,0.0
92035677,0.0,0.0,0.0,-0.01,13.49,346.32,16.12811279296875,0.0
92136551,0.0,0.0,0.0,-0.01,13.49,346.32,16.128477096557617,0.0
92235826,0.0,0.0,0.0,0.0,13.49,346.32,16.128477096557617,0.0
92336208,0.0,0.0,-0.01,-0.01,13.48,346.32,16.13113784790039,0.0
92435696,0.0,0.0,0.0,-0.01,13.48,346.32,16.128719329833984,0.0
92536215,0.0,0.0,0.0,0.0,13.48,346.32,16.1273250579834,0.0
92635956,0.0,0.0,-0.01,-0.01,13.48,346.32,16.129175186157227,0.0
92736171,0.0,0.0,-0.01,-0.01,13.48,346.32,16.12902069091797,0.0
92835687,0.0,0.0,-0.01,-0.01,13.48,346.32,16.128173828125,0.0
92936141,-0.01,0.0,0.0,-0.01,13.48,346.32,16.129928588867188,0.0
93035675,-0.01,0.0,0.0,-0.01,13.48,346.31,16.12883949279785,0.0
93136448,-0.01,0.0,0.0,-0.01,346.31,346.31,16.111709594726562,0.0
93235697,-0.01,0.0,0.0,-0.01,346.3,346.31,16.097911834716797,0.0
93336192,-0.01,0.0,0.0,-0.01,346.3,346.31,16.077392578125,0.0
93435728,-0.01,0.0,0.0,-0.01,346.3,346.31,16.072187423706055,0.0
93536220,-0.01,0.01,0.0,-0.02,346.3,346.31,16.0998477935791,0.0
93636002,-0.01,0.01,0.0,-0.01,346.3,346.3,16.106685638427734,0.0
93736222,-0.01,0.01,0.0,-0.02,346.3,346.3,16.11037826538086,0.0
93835713,-0.01,0.01,0.0,-0.02,346.3,346.31,16.111286163330078,0.0
93936221,-0.01,0.01,0.0,-0.02,346.3,346.31,16.114978790283203,0.0
94035689,-0.01,0.01,0.0,-0.01,346.3,346.31,16.11458396911621,0.0
94136472,-0.01,0.01,0.0,-0.02,346.3,346.31,16.113828659057617,0.0
94235686,-0.01,0.01,0.0,-0.02,346.31,346.32,16.116432189941406,0.0
94336138,-0.01,0.01,0.0,-0.02,346.31,346.32,16.117218017578125,0.0
94435704,-0.01,0.01,0.0,-0.02,346.31,346.32,16.08526039123535,0.0
94536128,-0.01,0.01,0.0,-0.02,346.31,346.32,16.02969741821289,0.00040159333730116487
94635959,-0.01,0.01,0.0,-0.03,346.31,346.32,16.053363800048828,0.0
94736168,-0.01,0.01,0.0,-0.03,346.31,346.32,16.077056884765625,0.0
94835621,-0.01,0.01,0.0,-0.02,346.31,346.32,16.087318420410156,0.0
94936192,-0.01,0.02,0.0,-0.03,346.31,346.32,16.089799880981445,0.0
95035700,-0.01,0.02,0.0,-0.03,346.31,346.32,16.089859008789062,0.0
95136531,-0.01,0.02,0.0,-0.03,346.31,346.32,16.09101104736328,0.0
95235704,-0.01,0.02,0.0,-0.03,346.31,346.33,16.091312408447266,0.0
95335728,-0.01,0.02,0.0,-0.03,346.31,346.33,16.09276580810547,0.0
95435771,-0.01,0.02,0.0,-0.03,346.31,346.33,16.091615676879883,0.0
95536150,-0.01,0.02,0.0,-0.03,346.31,346.32,16.091381072998047,0.0
95636023,-0.01,0.02,0.0,-0.03,346.31,346.32,16.090890884399414,0.0
95736203,-0.01,0.02,0.0,-0.04,346.31,346.33,16.090707778930664,0.0
95835694,-0.01,0.02,0.0,-0.03,346.31,346.33,16.090587615966797,0.0
95936138,-0.01,0.03,0.0,-0.03,346.31,346.33,16.093008041381836,0.0
96035780,-0.01,0.02,0.0,-0.03,346.31,346.33,16.08792495727539,0.0
96136394,-0.01,0.03,0.0,-0.04,346.31,346.34000000000003,16.08858871459961,0.0
96235687,-0.01,0.02,0.0,-0.03,346.31,346.34000000000003,16.088346481323242,0.0
96336200,0.0,0.03,0.0,-0.04,346.31,346.34000000000003,16.091514587402344,0.0
96435697,-0.02,0.02,-0.03,-0.03,346.31,346.35,16.03460121154785,0.0014055765932425857
96536235,-0.01,0.03,-0.07,-0.04,346.31,346.33,15.929831504821777,0.8391292095184326
96636008,0.0,0.02,-0.08,-0.04,346.31,346.35,15.857200622558594,2.0348732471466064
96736257,0.02,0.03,-0.07,-0.05,346.31,346.34000000000003,15.806722640991211,2.9133589267730713
96835710,0.0,0.03,-0.06,-0.04,346.31,346.34000000000003,15.718838691711426,4.13942289352417
96936266,-0.04,0.02,-0.05,-0.04,346.31,346.34000000000003,15.618307113647461,5.851615905761719
97035722,-0.08,0.03,-0.04,-0.08,346.31,346.34000000000003,15.510873794555664,7.354735374450684
97136571,-0.12,0.02,-0.01,-0.13,346.31,346.31,15.386796951293945,9.32379150390625
97235761,-0.17,0.02,0.01,-0.15,346.31,346.28000000000003,15.232758522033691,11.621106147766113
97336243,-0.23,0.02,0.04,-0.23,346.31,346.24,15.067464828491211,14.35254192352295
97435724,-0.23,0.22,0.11,-0.27,346.31,346.28000000000003,14.853748321533203,17.332965850830078
97536230,-0.35000000000000003,0.33,0.3,-0.52,346.31,346.84000000000003,14.697290420532227,19.826461791992188
97635982,-0.42,0.25,0.75,-0.77,346.31,348.31,14.770463943481445,19.736501693725586
97736234,-0.45,0.44,1.22,-0.68,346.3,350.49,14.756725311279297,19.476160049438477
97835702,-0.6,0.21,1.72,-0.67,346.3,352.83,14.723496437072754,20.56559181213379
97936161,-0.73,0.31,2.29,-0.08,346.29,354.96,14.77821159362793,21.074010848999023
98035701,-0.8,0.11,2.64,1.1500000000000001,346.29,356.68,14.713872909545898,20.49129867553711
98136544,-0.75,-0.73,2.91,1.26,346.28000000000003,358.03000000000003,14.784870147705078,20.71759605407715
98235786,-0.44,-1.16,3.08,2.08,346.28000000000003,358.88,14.77421760559082,20.297931671142578
98336240,0.19,-1.1400000000000001,3.19,2.48,346.28000000000003,359.54,14.802725791931152,19.310213088989258
98435732,0.87,-0.1,3.31,2.33,346.28000000000003,359.90000000000003,14.832651138305664,18.418853759765625
98536245,1.25,0.87,3.47,2.3000000000000003,346.29,359.92,14.886975288391113,17.81749153137207
98636090,1.26,1.1,3.64,2.35,346.29,359.69,14.926862716674805,17.014705657958984
98736262,1.18,0.87,3.79,2.36,346.29,359.33,14.959970474243164,16.54986000061035
98835743,1.12,0.64,3.8200000000000003,2.5300000000000002,346.29,358.78000000000003,14.964813232421875,16.59222984313965
98936235,1.1500000000000001,0.62,3.79,2.8000000000000003,346.29,358.15000000000003,14.946413040161133,16.475364685058594
99035719,1.19,0.97,3.67,2.89,346.29,357.40000000000003,14.921839714050293,16.457895278930664
99136455,1.16,1.31,3.5100000000000002,2.67,346.29,356.64,14.894722938537598,16.60648536682129
99235775,1.04,1.33,3.2800000000000002,2.13,346.28000000000003,355.99,14.859685897827148,16.853309631347656
99336298,0.91,1.28,3.11,1.54,346.28000000000003,355.43,14.912820816040039,17.169921875
99435691,0.8200000000000001,1.21,2.93,1.57,346.28000000000003,354.90000000000003,14.90150260925293,17.101850509643555
99536188,0.75,1.1300000000000001,2.7800000000000002,1.73,346.27,354.58,14.875052452087402,17.213695526123047
99636036,0.67,1.06,2.65,1.69,346.27,354.40000000000003,14.822516441345215,17.842187881469727
99736377,0.63,0.8300000000000001,2.58,1.6500000000000001,346.27,354.32,14.809080123901367,18.316471099853516
99835732,0.65,0.8200000000000001,2.5100000000000002,1.6,346.27,354.42,14.779664039611816,18.418474197387695
99936222,0.64,0.97,2.45,1.47,346.27,354.58,14.793915748596191,18.71068000793457
100035763,0.62,1.05,2.39,1.5,346.27,354.76,14.78444766998291,18.563047409057617
100136540,0.5700000000000001,1.03,2.36,1.47,346.27,354.86,14.823909759521484,18.493972778320312
100235744,0.51,0.87,2.2600000000000002,1.8,346.27,354.90000000000003,14.855745315551758,17.972705841064453
100336253,0.51,0.58,2.08,1.84,346.27,354.92,14.989930152893066,16.1412410736084
100435712,0.63,0.61,1.8,1.77,346.26,354.78000000000003,15.101236343383789,13.74272346496582
100535718,0.72,0.92,1.59,1.6,336.03000000000003,344.19,15.222349166870117,11.979930877685547
100636006,0.71,0.67,1.49,1.57,336.03000000000003,344.04,15.214056968688965,11.760860443115234
100736335,0.78,0.7000000000000001,1.44,1.6400000000000001,336.03000000000003,343.95,15.168905258178711,12.677184104919434
100835796,1.02,0.68,1.37,1.77,336.03000000000003,343.77,15.089555740356445,13.424662590026855
100936207,1.24,1.24,1.29,1.6600000000000001,336.02,343.63,15.052755355834961,14.093916893005371
101035724,1.34,1.72,1.2,1.3900000000000001,336.02,343.48,15.01632022857666,14.699520111083984
101136566,1.32,1.78,1.1500000000000001,1.25,336.02,343.34000000000003,14.987873077392578,15.277412414550781
101235800,0.98,1.57,1.02,1.1500000000000001,336.02,343.31,14.92643928527832,15.700490951538086
101335830,0.56,0.86,0.9400000000000001,0.6900000000000001,336.02,343.36,14.914515495300293,16.158308029174805
101435713,0.29,0.35000000000000003,0.98,0.45,336.02,343.37,14.892605781555176,16.56732940673828
101536261,0.2,0.09,1.1,0.5,336.02,343.28000000000003,14.900171279907227,16.76004981994629
101636081,0.17,-0.02,1.22,0.72,336.02,343.13,14.87850284576416,16.68961524963379
101735754,0.16,-0.02,1.35,0.8200000000000001,336.02,342.94,14.897144317626953,16.783788681030273
101835778,0.16,0.02,1.42,1.05,336.02,342.7,14.882315635681152,16.69925308227539
101936261,0.2,0.11,1.45,1.1300000000000001,336.02,342.41,14.876323699951172,16.684194564819336
102035730,0.2,0.42,1.49,1.16,336.02,342.21,14.883949279785156,16.646242141723633
102136602,0.14,0.61,1.59,1.31,336.02,342.17,14.899808883666992,16.60126495361328
102235719,0.02,0.59,1.69,1.51,336.02,342.21,14.905686378479004,16.459077835083008
102336279,-0.08,0.32,1.75,1.58,336.02,342.23,14.896599769592285,16.32476806640625
102435784,-0.12,0.31,1.81,1.42,336.02,342.28000000000003,14.889396667480469,16.15127944946289
102536249,-0.15,0.22,1.9100000000000001,1.28,336.02,342.31,14.90719223022461,16.222562789916992
102635982,-0.12,0.11,2.0100000000000002,1.3900000000000001,336.02,342.33,14.907252311706543,16.045059204101562
102736231,-0.08,0.19,2.13,1.54,336.02,342.37,14.92795181274414,15.958715438842773
102835730,0.02,0.13,2.24,1.76,336.02,342.40000000000003,14.919357299804688,16.004295349121094
102936239,0.14,0.44,2.33,2.0,336.02,342.47,14.918463706970215,16.04766845703125
103035713,0.24,0.49,2.33,2.05,336.02,342.43,14.9176025390625,15.926989555358887
103136585,0.29,0.6900000000000001,2.3000000000000003,2.02,336.02,342.37,14.926257133483887,15.97176742553711
103235723,0.3,0.66,2.19,2.04,336.02,342.24,14.913607597351074,16.0518856048584
103336262,0.31,0.55,2.08,2.0,336.02,342.13,14.91354751586914,16.385007858276367
103435703,0.32,0.5,1.94,2.13,336.02,342.02,14.881590843200684,16.54343605041504
103536253,0.3,0.6900000000000001,1.79,1.99,336.02,341.98,14.876869201660156,16.378782272338867
103636002,0.31,0.8,1.6500000000000001,1.7,336.02,342.0,14.87807846069336,16.49042510986328
103736257,0.27,0.87,1.56,1.51,336.02,342.1,14.896675109863281,16.54854393005371
103835712,0.22,0.68,1.5,1.51,336.02,342.26,14.904106140136719,16.35970687866211
103936361,0.18,0.52,1.48,1.6,335.63,342.48,14.934428215026855,16.347858428955078
104035692,0.11,0.33,1.4000000000000001,1.69,332.82,342.39,14.931886672973633,16.685197830200195
104136514,0.07,-0.18,1.31,1.54,328.64,341.13,14.900473594665527,16.90105438232422
104235707,0.22,-0.67,1.28,1.51,326.83,338.65000000000003,14.831897735595703,16.75628089904785
104336198,0.53,-0.15,1.35,1.33,326.79,336.52,14.811985969543457,16.86912727355957
104435720,0.78,0.6900000000000001,1.44,1.27,326.79,335.07,14.84300708770752,16.871381759643555
104536259,0.84,0.9500000000000001,1.53,1.31,326.79,334.06,14.867063522338867,16.656282424926758
104636019,0.77,1.09,1.6,1.43,326.79,333.34000000000003,14.884857177734375,16.50568389892578
104736285,0.66,1.01,1.6600000000000001,1.58,326.79,332.92,14.887279510498047,16.498857498168945
104835733,0.59,0.8300000000000001,1.62,1.74,326.79,332.71,14.897144317626953,16.29444694519043
104936320,0.56,0.75,1.57,1.74,326.64,332.72,14.907736778259277,16.441631317138672
105035744,0.5,0.58,1.49,1.75,324.37,332.65000000000003,14.922685623168945,16.83880615234375
105136613,0.37,0.19,1.43,1.71,319.41,331.6,14.923911094665527,17.249547958374023
105235722,0.25,-0.53,1.41,1.71,311.75,328.66,14.896599769592285,17.773515701293945
105336281,0.18,-1.06,1.48,1.76,302.48,323.39,14.873418807983398,17.980737686157227
105435760,0.28,-1.11,1.6600000000000001,1.96,295.26,316.37,14.801212310791016,17.703638076782227
105536290,0.47000000000000003,-0.27,1.8800000000000001,2.05,290.73,309.16,14.764715194702148,17.456056594848633
105636021,0.63,0.52,2.0300000000000002,1.97,288.91,302.92,14.773309707641602,17.02052879333496
105736178,0.64,1.1400000000000001,2.08,1.84,288.86,298.25,14.79739761352539,16.639616012573242
105835672,0.46,1.5,2.1,1.8,288.87,295.15000000000003,14.830700874328613,16.40843391418457
105936239,0.13,1.42,2.14,1.78,288.87,293.26,14.853930473327637,16.0559024810791
106035901,-0.12,1.07,2.21,1.72,288.87,292.23,14.878987312316895,15.808318138122559
106136572,-0.3,0.88,2.29,1.81,288.87,291.74,14.893815994262695,15.694467544555664
106235734,-0.44,0.64,2.32,1.87,288.86,291.68,14.894238471984863,15.705309867858887
106336286,-0.55,0.38,2.32,1.82,288.86,291.83,14.898415565490723,15.635433197021484
106435733,-0.5,0.09,2.32,1.83,290.05,292.12,14.872632026672363,15.35090446472168
106536300,-0.24,0.24,2.34,1.78,293.94,293.11,14.823545455932617,15.299500465393066
106636019,0.19,0.6900000000000001,2.33,1.79,300.52,295.68,14.791157722473145,15.489900588989258
106736268,0.62,1.47,2.23,1.8800000000000001,309.37,300.61,14.81204605102539,15.514151573181152
106835724,0.84,2.12,2.05,1.97,318.22,307.91,14.866822242736816,15.517163276672363
106936185,0.81,1.98,1.92,1.8800000000000001,325.44,316.57,14.911429405212402,15.723583221435547
107035791,0.65,1.36,1.82,1.9100000000000001,330.18,325.36,14.947078704833984,16.010923385620117
107136502,0.48,0.65,1.71,1.8900000000000001,332.21,333.09000000000003,14.966991424560547,16.457292556762695
107235757,0.43,-0.09,1.47,2.0,332.29,338.6,14.937152862548828,16.65467643737793
107335697,0.55,-0.71,1.19,1.8900000000000001,332.29,341.8,14.891494750976562,16.72524642944336
107435745,0.81,-0.59,0.98,1.61,332.29,343.31,14.843942642211914,16.992015838623047
107536231,1.09,-0.08,0.81,1.19,332.29,343.76,14.849268913269043,17.101449966430664
107636017,1.28,0.4,0.7000000000000001,0.88,332.28000000000003,343.6,14.84358024597168,16.968923568725586
107736262,1.31,0.75,0.65,0.78,332.28000000000003,342.84000000000003,14.850419044494629,16.897640228271484
107835736,1.25,0.89,0.59,0.68,332.83,341.81,14.841885566711426,16.358301162719727
107936267,1.1400000000000001,1.17,0.53,0.59,335.90000000000003,340.92,14.807144165039062,15.920965194702148
108035778,1.04,1.7,0.44,0.46,341.67,341.24,14.766477584838867,15.753835678100586
108136692,0.86,2.2600000000000002,0.37,0.41000000000000003,349.69,343.85,14.804057121276855,15.919360160827637
108235705,0.52,2.75,0.36,0.63,356.04,348.94,14.882862091064453,16.009920120239258
108336279,-0.01,2.29,0.39,0.8300000000000001,359.68,355.04,14.960333824157715,16.422555923461914
108435726,-0.5700000000000001,0.76,0.35000000000000003,1.23,0.65,0.64,14.972378730773926,16.41452407836914
108536224,-0.89,-0.38,0.21,1.57,0.65,4.76,15.001007080078125,16.132404327392578
108635961,-0.84,-1.16,-0.04,1.75,0.66,7.2700000000000005,14.961362838745117,15.785428047180176
108736196,-0.59,-1.29,-0.28,1.47,0.4,8.69,14.950407028198242,16.039636611938477
108835726,-0.25,-1.24,-0.53,1.08,357.87,9.07,14.947562217712402,16.696643829345703
108936283,0.08,-1.31,-0.65,0.8300000000000001,352.64,7.8,14.92782974243164,17.364694595336914
109035740,0.45,-1.68,-0.61,0.6900000000000001,345.3,4.33,14.879289627075195,17.630348205566406
109136534,0.85,-1.76,-0.39,0.46,338.69,358.87,14.835226058959961,17.61468505859375
109235716,1.29,-1.25,-0.08,0.4,334.67,352.53000000000003,14.759933471679688,17.529949188232422
109336258,1.69,-0.28,0.22,0.25,333.36,346.64,14.755091667175293,17.314495086669922
109435695,1.96,0.91,0.47000000000000003,0.16,333.36,341.89,14.809503555297852,16.92354393005371
109536255,1.99,1.76,0.68,0.55,333.37,338.14,14.805549621582031,16.72234535217285
109636034,1.77,1.95,0.85,0.81,333.38,335.24,14.820277214050293,16.222763061523438
109736249,1.47,1.8900000000000001,1.04,0.8300000000000001,333.38,333.21,14.864644050598145,15.87779426574707
109835723,1.19,1.84,1.22,0.98,333.39,331.95,14.8738431930542,15.48985481262207
109936285,0.91,1.68,1.43,1.01,333.39,331.34000000000003,14.895994186401367,15.284842491149902
110035723,0.63,1.4000000000000001,1.6400000000000001,1.04,333.47,331.25,14.906525611877441,15.049508094787598
110136540,0.45,1.1,1.82,1.2,335.46,331.58,14.875840187072754,14.897706031799316
110235878,0.4,1.26,1.99,1.4000000000000001,339.64,333.2,14.861838340759277,15.040785789489746
110336252,0.31,1.6,2.15,1.53,342.38,336.37,14.905800819396973,15.488852500915527
110435687,0.09,1.35,2.2600000000000002,1.67,343.42,340.12,14.924683570861816,15.870766639709473
110536217,-0.16,0.68,2.32,1.84,343.42,343.21,14.934670448303223,15.836630821228027
110636065,-0.32,0.02,2.32,2.0100000000000002,343.42,345.36,14.917723655700684,15.739646911621094
110736215,-0.32,-0.25,2.29,2.07,343.42,346.67,14.920750617980957,15.908716201782227
110835732,-0.17,-0.54,2.21,2.12,343.42,347.43,14.90761661529541,15.665552139282227
110936262,0.0,-0.32,2.13,1.96,343.42,347.77,14.882550239562988,16.0561466217041
111035707,0.2,-0.05,2.0100000000000002,1.78,343.42,347.69,14.922565460205078,16.021764755249023
111136564,0.44,0.0,1.18,1.55,343.42,347.52,14.977280616760254,16.197864532470703
111235750,0.81,0.43,-2.43,-1.1400000000000001,343.38,347.24,14.827902793884277,15.315362930297852
111336236,1.11,0.8200000000000001,-6.82,-6.32,343.3,346.92,14.849874496459961,16.823144912719727
111435710,1.33,0.71,-11.11,-10.73,343.21,346.6,14.744197845458984,17.683759689331055
111536264,1.46,0.75,-14.290000000000001,-14.23,343.13,346.35,14.763566017150879,18.48031997680664
111635980,1.53,0.67,-16.2,-15.9,343.08,346.3,14.79152774810791,18.730512619018555
111736222,1.55,0.88,-17.27,-16.19,343.05,346.38,14.7935791015625,18.320240020751953
111835693,1.51,1.02,-17.75,-16.25,343.03000000000003,346.51,14.81882381439209,18.05483055114746
111936238,1.3800000000000001,1.04,-17.990000000000002,-16.11,343.03000000000003,346.64,14.831777572631836,17.986360549926758
112035700,1.21,1.04,-18.12,-15.89,343.02,346.63,14.87093734741211,17.956642150878906
112136586,1.06,0.6,-18.2,-15.46,343.02,346.65000000000003,14.887521743774414,17.44782257080078
112235756,0.98,0.07,-18.23,-15.370000000000001,343.02,346.49,14.892363548278809,17.014503479003906
112336347,0.99,-0.2,-18.27,-15.47,343.02,346.33,14.929828643798828,17.11028480529785
112435719,1.06,0.0,-18.36,-15.26,343.02,346.18,14.902660369873047,17.30978775024414
112536273,1.02,0.34,-18.52,-15.040000000000001,343.02,346.15000000000003,14.900836944580078,17.169719696044922
112636102,0.78,0.31,-18.7,-15.280000000000001,343.01,346.2,14.92764949798584,17.229557037353516
112736270,0.52,-0.15,-18.95,-15.34,343.01,346.13,14.92643928527832,17.339994430541992
112835745,0.27,-0.43,-19.07,-15.42,343.01,346.26,14.884676933288574,16.811298370361328
112936256,0.03,-0.74,-17.7,-14.64,343.01,346.19,14.941207885742188,16.501468658447266
113035766,-0.17,-0.88,-14.24,-11.72,343.01,346.14,15.019043922424316,15.27701187133789
113136514,-0.48,-0.75,-7.8,-5.47,342.97,345.98,15.322638511657715,15.481867790222168
113235677,-0.61,-1.1,-3.5500000000000003,1.62,342.93,345.67,15.293042182922363,12.640953063964844
113335676,-0.45,-1.11,-1.83,4.2700000000000005,342.91,345.22,15.241837501525879,12.158638954162598
113435804,-0.13,-0.55,-1.6400000000000001,4.3100000000000005,342.91,345.07,15.171445846557617,12.898775100708008
113536180,0.0,-0.05,-1.95,3.09,342.91,345.26,15.149656295776367,13.544136047363281
113635980,0.08,0.04,-2.2,2.04,342.91,345.31,15.123207092285156,13.943319320678711
113736267,0.23,0.14,-2.23,1.26,342.91,345.32,15.199771881103516,13.926051139831543
113835714,0.46,-0.09,-2.2,1.35,342.91,345.52,15.225375175476074,13.425263404846191
113936222,0.78,0.45,-2.2,1.45,342.91,346.08,15.20515251159668,12.849869728088379
114035769,1.05,1.03,-2.15,0.99,342.91,346.6,15.193477630615234,13.688508987426758
114136524,1.18,1.12,-1.73,1.36,342.92,346.69,15.161641120910645,14.029662132263184
114235726,1.1500000000000001,1.69,0.08,3.24,342.96,346.65000000000003,15.160248756408691,14.120823860168457
114336246,1.02,2.15,3.0100000000000002,6.36,343.01,346.64,15.198379516601562,14.342303276062012
114435790,0.6900000000000001,2.49,6.2700000000000005,10.17,343.06,346.72,15.126839637756348,14.976217269897461
114536258,0.26,2.08,9.53,13.49,343.09000000000003,346.55,15.08271598815918,16.041645050048828
114636010,-0.13,2.05,12.38,16.78,343.09000000000003,346.44,15.055318832397461,18.029977798461914
114736277,-0.42,1.6500000000000001,12.870000000000001,18.47,343.09000000000003,346.48,14.9102783203125,18.167078018188477
114835747,-0.49,1.36,11.24,16.04,343.11,346.56,14.796430587768555,18.091777801513672
114936234,-0.63,1.42,9.22,11.700000000000001,343.13,346.43,14.789107322692871,17.75986099243164
115035679,-0.93,0.47000000000000003,7.65,7.11,343.15000000000003,346.21,14.864097595214844,17.0924129486084
115136487,-1.03,-0.75,6.94,4.22,343.16,346.08,14.91154956817627,16.894628524780273
115235737,-0.79,-0.52,6.87,3.22,343.16,345.91,14.904770851135254,16.717525482177734
115336244,-0.46,-0.1,7.07,2.85,343.16,345.76,14.914091110229492,16.631763458251953
115435725,-0.36,0.17,7.36,3.0,343.16,345.7,14.928436279296875,16.549259185791016
115536236,-0.31,-0.17,7.57,3.36,343.16,345.7,14.939027786254883,16.138830184936523
115636073,-0.14,-0.22,7.66,3.36,343.15000000000003,345.75,14.923896789550781,15.919158935546875
115736302,0.03,0.02,7.7700000000000005,3.2600000000000002,343.15000000000003,345.8,14.935457229614258,16.093650817871094
115835733,0.21,0.22,7.92,3.5,343.16,345.86,14.954946517944336,15.890445709228516
115936275,0.36,0.22,8.06,3.94,343.16,345.87,14.963723182678223,16.026182174682617
116035721,1.49,0.62,7.76,4.15,343.15000000000003,345.84000000000003,14.909431457519531,15.919560432434082
116136568,4.8,3.81,6.7700000000000005,3.0100000000000002,343.1,345.72,14.844419479370117,15.939684867858887
116235775,7.640000000000001,7.94,6.3500000000000005,1.93,343.05,345.5,14.83341121673584,17.099241256713867
116336278,9.290000000000001,9.64,6.42,1.99,343.06,345.33,14.858893394470215,17.34581756591797
116435671,10.11,10.36,6.67,2.64,343.11,345.25,14.834863662719727,17.205461502075195
116536347,10.51,10.61,6.84,3.0,343.14,345.02,14.829416275024414,17.414491653442383
116635980,10.65,10.620000000000001,6.8,3.33,343.13,344.86,14.838374137878418,17.49581527709961
116736251,10.58,10.23,6.63,3.65,343.1,344.71,14.836014747619629,17.460474014282227
116835726,10.5,9.91,6.36,3.83,343.05,344.53000000000003,14.833391189575195,17.606298446655273
116936272,10.25,9.51,5.98,3.95,342.98,344.51,14.861919403076172,17.302448272705078
117035766,9.75,9.1,5.5200000000000005,3.95,342.90000000000003,344.54,14.83952522277832,17.01169204711914
117136658,9.0,8.41,5.05,3.4,342.82,344.39,14.839887619018555,16.795835494995117
117235751,7.96,7.140000000000001,4.6000000000000005,2.7600000000000002,342.75,344.23,14.90343952178955,16.705476760864258
117336229,7.3500000000000005,6.0200000000000005,4.16,2.68,342.69,344.06,14.90035343170166,16.256296157836914
117435711,6.97,5.59,3.7,2.48,342.63,343.77,14.887642860412598,16.307498931884766
117536234,6.84,5.08,3.2600000000000002,2.1,342.58,343.49,14.879189491271973,16.255382537841797
117636105,6.83,5.13,2.85,1.74,342.53000000000003,343.43,14.892423629760742,16.042247772216797
117736261,6.75,5.14,2.5,1.36,342.49,343.53000000000003,14.911367416381836,16.023372650146484
117835805,6.5,5.0,2.25,1.22,342.46,343.63,14.920568466186523,15.924179077148438
117936206,5.7,4.53,1.99,1.07,342.43,343.73,14.933762550354004,15.705511093139648
118035670,4.84,3.56,1.68,0.8200000000000001,342.40000000000003,343.77,14.940481185913086,15.327610969543457
118136508,3.5100000000000002,2.58,1.3900000000000001,0.59,342.38,343.76,14.945987701416016,15.271991729736328
118235691,1.44,0.47000000000000003,1.12,0.39,342.37,343.61,14.936304092407227,15.145088195800781
118336197,0.25,-1.22,0.97,0.07,342.37,343.42,14.961166381835938,15.22194766998291
118435724,-0.2,-1.6,0.93,0.2,342.37,343.27,14.956883430480957,15.44066047668457
118536204,-0.31,-1.53,0.89,0.63,342.37,343.23,14.940723419189453,15.475799560546875
118636028,-0.31,-1.33,0.8200000000000001,0.63,342.37,343.35,14.925410270690918,15.373193740844727
118736341,-0.35000000000000003,-0.85,0.72,0.49,342.37,343.52,14.928738594055176,15.608927726745605
118835782,-0.39,-0.63,0.58,0.35000000000000003,342.37,343.64,14.937152862548828,15.476201057434082
118936257,-0.47000000000000003,-0.5,0.45,0.24,342.37,343.73,14.943689346313477,15.375
119035726,-0.6,-0.44,0.42,0.17,342.37,343.79,14.920278549194336,15.562186241149902
119136574,-0.89,-0.52,0.42,0.14,342.37,343.79,14.87123966217041,15.709325790405273
119235731,-1.61,-1.44,0.5,-0.3,342.37,343.78000000000003,14.893271446228027,15.950883865356445
119335701,-1.98,-1.93,0.67,-0.22,342.46,343.73,14.893453598022461,15.976787567138672
119435716,-2.04,-2.1,0.9500000000000001,0.03,344.41,343.74,14.850480079650879,15.712137222290039
119536205,-1.6,-1.58,1.24,0.22,347.58,344.68,14.87130069732666,15.89164924621582
119636061,-1.25,-0.5700000000000001,1.41,0.53,348.32,346.69,14.91590690612793,16.155696868896484
119736171,-1.23,-0.64,1.48,0.85,348.32,348.61,14.94689655303955,15.791251182556152
119835666,-1.3900000000000001,-0.9500000000000001,1.46,1.01,348.32,349.94,14.944489479064941,15.599446296691895
119936226,-1.56,-1.09,1.37,1.1300000000000001,348.32,350.74,14.934550285339355,15.70470905303955
120035793,-1.6400000000000001,-1.04,1.27,1.27,348.32,351.12,14.902652740478516,15.933815956115723
120136540,-1.74,-0.98,1.2,1.27,348.33,351.24,14.885523796081543,16.13140106201172
120235717,-1.86,-1.09,1.12,1.07,348.33,351.18,14.873723030090332,16.2340087890625
120336195,-1.99,-1.19,1.05,0.99,348.33,350.95,14.876565933227539,16.451871871948242
120435713,-2.06,-1.46,1.05,1.09,348.33,350.71,14.889216423034668,16.277177810668945
120535733,-2.07,-1.78,1.27,1.25,348.32,350.47,14.700234413146973,15.525373458862305
120636036,-2.13,-1.75,4.78,2.72,348.19,350.23,14.918388366699219,17.301042556762695
120736247,-2.16,-1.71,9.28,8.64,348.02,349.82,14.887521743774414,17.469711303710938
120835786,-2.02,-1.69,12.49,12.86,347.90000000000003,349.56,14.789289474487305,16.529380798339844
120936320,-1.87,-1.23,15.040000000000001,14.76,347.81,349.37,14.743227005004883,17.270118713378906
121035716,-1.82,-1.1400000000000001,17.62,16.71,347.72,349.21,14.73505687713623,18.310447692871094
121136540,-1.82,-1.07,19.36,18.5,347.67,349.09000000000003,14.69008731842041,18.264263153076172
121235670,-1.81,-0.84,20.18,18.89,347.64,349.07,14.662708282470703,18.139745712280273
121336192,-1.87,-0.65,20.54,18.53,347.63,349.13,14.697530746459961,18.18956756591797
121435714,-1.93,-0.8200000000000001,20.72,18.28,347.62,349.09000000000003,14.665816307067871,17.683156967163086
121536329,-1.93,-0.88,20.91,17.69,347.61,348.93,14.689845085144043,17.581754684448242
121636054,-1.84,-0.91,21.13,17.490000000000002,347.61,348.82,14.694263458251953,17.266904830932617
121736238,-1.71,-0.79,21.400000000000002,17.38,347.6,348.64,14.660429954528809,17.546213150024414
121835725,-1.57,-0.59,21.7,17.43,347.59000000000003,348.59000000000003,14.634281158447266,18.22530746459961
121936235,-1.44,-0.59,22.0,17.84,347.58,348.5,14.636011123657227,18.3117618560791
122035767,-1.33,-0.46,22.19,18.03,347.57,348.5,14.59591007232666,18.1391658782959
122136569,-1.28,-0.18,22.36,17.92,347.57,348.43,14.577025413513184,18.191776275634766
122235717,-1.22,-0.33,22.5,17.66,347.57,348.55,14.643360137939453,17.787973403930664
122336294,-1.1300000000000001,-0.59,22.63,17.77,347.56,348.71,14.678950309753418,17.05506706237793
122435746,-0.97,-0.28,22.740000000000002,18.18,347.56,348.86,14.67562198638916,17.269113540649414
122536295,-0.86,-0.1,22.82,18.86,347.56,348.93,14.6127347946167,17.794599533081055
122635991,-0.96,0.45,22.87,19.26,347.56,348.86,14.561295509338379,17.999412536621094
122736238,-1.1400000000000001,0.26,22.8,18.69,347.56,349.02,14.629501342773438,16.89683723449707
122835702,-1.3800000000000001,0.52,22.73,18.27,347.56,349.23,14.707881927490234,16.1842098236084
122936311,-1.74,0.27,22.82,18.35,347.56,349.3,14.774641036987305,15.594470024108887
123035697,-2.0300000000000002,-1.03,22.75,18.86,347.56,349.37,14.833108901977539,15.782617568969727
123136527,-1.98,-1.33,20.86,18.55,347.63,349.69,14.93370246887207,14.343506813049316
123235733,-1.68,-0.8,14.790000000000001,13.63,347.84000000000003,350.11,14.818461418151855,11.390190124511719
123336248,-1.57,-0.51,8.06,4.66,348.03000000000003,350.25,14.930977821350098,11.19782829284668
123435746,-1.74,-1.18,4.44,-0.34,348.13,350.01,14.996407508850098,13.092164993286133
123536257,-1.68,-2.32,2.62,-1.12,348.19,350.03000000000003,14.863492965698242,13.192941665649414
123636069,-1.34,-2.09,1.83,-1.6500000000000001,348.21,350.12,14.906405448913574,13.21764087677002
123736273,-0.8200000000000001,-2.32,1.29,-1.81,348.22,350.26,14.886975288391113,12.987326622009277
123835742,-0.32,-1.8900000000000001,1.02,-1.93,348.22,350.22,14.88140869140625,13.000378608703613
123936284,0.12,-1.42,0.8,-2.11,348.22,349.75,14.886492729187012,12.686332702636719
124035696,0.37,-0.75,0.22,-2.52,348.22,348.92,15.066193580627441,13.367836952209473
124136578,0.54,-0.85,-4.66,-5.3,348.18,348.15000000000003,14.813955307006836,12.385137557983398
124235661,0.63,-0.16,-11.06,-12.3,348.11,347.42,14.671869277954102,14.278048515319824
124336220,0.65,0.51,-15.84,-18.14,348.06,346.51,14.590340614318848,16.917118072509766
124435741,0.6,0.18,-18.14,-20.95,348.03000000000003,345.68,14.538471221923828,17.88154411315918
124536147,0.63,-0.02,-18.94,-21.82,348.02,344.81,14.518255233764648,18.29257583618164
124635970,0.7000000000000001,0.47000000000000003,-18.89,-21.43,348.02,344.11,14.588887214660645,18.67489242553711
124736264,0.75,1.29,-18.62,-19.8,348.03000000000003,343.89,14.636280059814453,18.194786071777344
124835736,0.68,2.0100000000000002,-18.39,-17.900000000000002,348.03000000000003,344.2,14.726764678955078,17.755643844604492
124936253,0.5700000000000001,1.78,-18.56,-16.330000000000002,348.03000000000003,345.01,14.737221717834473,17.232145309448242
125035791,0.49,1.44,-18.98,-15.72,348.02,345.89,14.547065734863281,16.80607795715332
125136549,0.65,1.36,-15.75,-14.34,348.06,346.7,14.708123207092285,18.084550857543945
125235722,0.74,1.37,-8.82,-5.87,348.15000000000003,347.47,14.975041389465332,19.034116744995117
125336273,0.7000000000000001,1.12,-4.91,2.12,348.2,348.16,14.830384254455566,15.513347625732422
125435731,0.4,1.24,-3.95,3.13,348.21,348.77,14.828871726989746,15.454916954040527
125536258,0.02,0.67,-4.34,1.8900000000000001,348.21,349.22,14.796854972839355,16.623353958129883
125635977,-0.24,0.21,-4.88,0.86,348.21,349.58,14.754640579223633,17.28368377685547
125736297,-0.39,-0.06,-5.26,0.02,348.21,349.96,14.749947547912598,17.545612335205078
125835735,-0.39,-0.37,-5.59,-0.84,348.21,350.36,14.646448135375977,16.92916488647461
125936232,-0.44,-0.21,-3.7600000000000002,-1.35,348.2,350.53000000000003,14.652379035949707,17.82150650024414
126035713,-0.68,-0.1,1.4000000000000001,3.0,348.15000000000003,350.51,14.74244213104248,18.815048217773438
126136503,-0.89,-0.54,7.11,9.47,348.07,350.49,14.74232006072998,18.374300003051758
126235866,-0.99,-0.43,11.06,14.31,348.0,350.42,14.656373977661133,18.66706085205078
126336255,-1.01,-0.16,12.81,16.03,347.97,350.44,14.605835914611816,18.915645599365234
126435707,-1.12,0.2,13.47,15.94,347.96,350.49,14.620408058166504,18.652000427246094
126536210,-1.26,0.06,13.86,15.4,347.95,350.52,14.68125057220459,18.09459114074707
126636071,-1.19,-0.23,14.07,15.0,347.95,350.67,14.668418884277344,17.266904830932617
126736276,-0.97,-0.26,14.39,14.13,347.94,350.92,14.74213981628418,17.003259658813477
126835723,-0.7000000000000001,-0.21,14.86,14.4,347.93,351.24,14.735905647277832,16.909488677978516
126936253,-0.45,-0.09,15.43,14.75,347.93,351.67,14.719502449035645,16.951053619384766
127035715,-0.29,-0.2,15.94,15.030000000000001,347.92,352.0,14.723738670349121,17.145021438598633
127136536,-0.16,-0.09,16.4,15.5,347.92,352.18,14.670443534851074,16.9664249420166
127235749,0.03,0.33,16.85,15.27,347.92,352.04,14.673320770263672,16.731782913208008
127336261,0.18,1.09,17.35,15.14,347.92,351.58,14.713146209716797,16.75126075744629
127435687,0.39,1.71,17.73,15.66,347.92,350.92,14.686636924743652,16.448257446289062
127536226,0.64,1.8800000000000001,17.79,15.63,347.92,350.2,15.023703575134277,17.698617935180664
127635983,1.08,2.02,11.03,13.01,347.81,349.46,14.48417854309082,14.011590957641602
127736310,1.21,2.27,4.34,2.0100000000000002,347.67,348.63,14.763443946838379,13.623250007629395
127835716,1.29,2.37,0.86,-3.59,347.6,347.89,15.08073902130127,15.869405746459961
127936253,1.32,1.73,-5.7700000000000005,-6.98,347.44,347.6,14.64100170135498,13.250771522521973
128035702,1.22,1.78,-12.55,-16.52,347.29,347.41,14.5700044631958,14.944692611694336
128136074,0.9400000000000001,1.6300000000000001,-16.080000000000002,-22.22,347.22,346.90000000000003,14.431946754455566,18.12792205810547
128235733,0.66,-0.46,-16.740000000000002,-24.34,347.21,346.43,14.424259185791016,20.226648330688477
128336272,0.6900000000000001,-0.87,-15.99,-22.89,347.22,345.72,14.55390453338623,19.53129005432129
128435704,1.05,0.78,-14.61,-19.27,347.24,345.41,14.792073249816895,16.7938289642334
128536233,1.12,2.0,-13.72,-15.44,347.26,345.58,14.90555191040039,14.835526466369629
128635990,0.81,1.6500000000000001,-13.74,-13.23,347.26,345.86,14.92637825012207,14.123031616210938
128736317,0.46,1.46,-14.51,-12.31,347.25,346.15000000000003,14.896842002868652,14.297323226928711
128835759,0.2,1.37,-15.530000000000001,-12.49,347.24,346.2,14.805206298828125,14.693094253540039
128936185,0.0,1.32,-15.47,-12.75,347.24,346.19,14.663456916809082,15.378613471984863
129035681,-0.21,1.34,-10.48,-9.06,347.23,346.24,14.942418098449707,17.319515228271484
129136001,-0.4,0.73,-4.55,-0.42,347.2,346.19,14.927044868469238,16.2374210357666
129235763,-0.7000000000000001,0.4,-1.55,4.54,347.17,346.04,14.810956001281738,14.995091438293457
129336235,-0.98,0.25,-0.75,4.69,347.16,345.74,14.764324188232422,16.051015853881836
129435832,-1.21,0.15,-0.99,3.69,347.16,345.52,14.741412162780762,16.870532989501953
129535704,-1.4000000000000001,-0.08,-1.42,2.61,347.17,345.37,14.730215072631836,16.606285095214844
129636052,-4.07,-1.41,-1.87,1.3900000000000001,347.19,345.24,14.742864608764648,16.680177688598633
129736263,-7.71,-6.1000000000000005,-2.09,0.2,347.22,345.22,14.745165824890137,17.13297462463379
129835796,-10.08,-9.47,-2.19,-0.12,347.23,345.26,14.722771644592285,17.24160385131836
129936238,-10.99,-10.31,-2.25,-0.42,347.24,345.38,14.695534706115723,17.573522567749023
130035695,-11.03,-10.16,-2.4,-0.6900000000000001,347.27,345.54,14.686314582824707,17.759794235229492
130136519,-10.870000000000001,-9.83,-2.5300000000000002,-1.11,347.3,345.73,14.685790061950684,17.546213150024414
130235738,-10.71,-9.58,-2.58,-1.44,347.31,345.91,14.724405288696289,17.834156036376953
130336282,-8.47,-8.82,-2.56,-1.4000000000000001,347.3,346.06,14.722649574279785,17.609464645385742
130435647,-3.95,-3.11,-2.58,-0.96,347.3,346.17,14.753819465637207,16.91792106628418
130536213,-1.33,1.07,-2.56,-0.85,347.3,346.46,14.788865089416504,16.57877540588379
130636037,-0.34,1.98,-2.56,-0.81,347.3,346.7,14.884252548217773,16.715316772460938
130736246,-0.13,2.11,-4.11,-1.25,347.31,346.84000000000003,14.832806587219238,15.976987838745117
130835685,-0.17,1.95,-7.82,-5.01,347.32,346.88,14.732245445251465,15.852895736694336
130935716,-0.27,1.61,-11.38,-9.66,347.33,346.85,14.777606964111328,17.322324752807617
131035769,-0.31,0.86,-14.72,-12.93,347.35,346.94,14.733967781066895,17.84981918334961
131136554,-0.19,0.17,-17.44,-15.620000000000001,347.36,347.06,14.749885559082031,18.052824020385742
131235782,0.03,-0.25,-19.23,-17.18,347.37,347.17,14.75660514831543,18.413053512573242
131336251,0.34,-0.32,-20.2,-17.48,347.36,347.3,14.742622375488281,18.371488571166992
131435711,0.72,0.16,-20.56,-17.37,347.36,347.46,14.760720252990723,18.083343505859375
131536268,1.12,0.43,-20.68,-17.27,347.36,347.65000000000003,14.792166709899902,17.8287353515625
131636078,1.49,0.49,-20.66,-17.23,347.36,347.94,14.795522689819336,17.747411727905273
131736236,1.81,1.09,-20.580000000000002,-16.8,347.36,348.11,14.788743019104004,17.992786407470703
131835744,2.0100000000000002,1.09,-20.52,-16.68,347.36,348.22,14.796006202697754,17.951419830322266
131936278,2.16,1.01,-20.43,-16.64,347.37,348.32,14.811258316040039,18.112459182739258
132035667,2.33,1.1400000000000001,-20.38,-16.45,347.37,348.32,14.811924934387207,17.88054084777832
132136554,2.49,1.3900000000000001,-20.36,-16.32,347.37,348.32,14.825362205505371,18.010656356811523
132235672,2.69,1.45,-20.48,-16.25,347.37,348.26,14.828084945678711,18.12671661376953
132335727,2.87,1.86,-20.73,-16.17,347.35,348.41,14.875288963317871,17.994503021240234
132435783,2.94,1.92,-21.01,-16.13,347.34000000000003,348.49,14.867365837097168,17.526336669921875
132536355,2.93,1.97,-21.26,-16.44,347.32,348.65000000000003,14.849814414978027,17.29802894592285
132636008,2.81,2.0300000000000002,-21.400000000000002,-17.07,347.32,348.73,14.8375883102417,17.84319305419922
132736275,2.71,1.62,-21.44,-17.25,347.31,348.74,14.871058464050293,18.30582618713379
132835701,2.72,1.42,-21.47,-16.86,347.31,348.89,14.924381256103516,17.37192153930664
132936239,2.92,1.27,-21.46,-16.72,347.31,349.05,15.006332397460938,16.25027084350586
133035719,3.23,1.47,-21.56,-16.72,347.31,349.17,15.0154390335083,15.39351749420166
133136576,3.54,1.8,-21.68,-17.18,347.3,349.28000000000003,14.997980117797852,15.631617546081543
133235704,3.77,2.45,-21.78,-17.62,347.29,349.25,14.990294456481934,15.93462085723877
133336236,3.89,2.75,-21.740000000000002,-17.63,347.29,349.47,15.057234764099121,15.779806137084961
133435729,3.94,2.46,-21.64,-17.54,347.3,349.52,15.053421020507812,14.889473915100098
133536291,3.9,2.89,-21.61,-17.76,347.3,349.44,15.06413459777832,14.748514175415039
133635965,3.63,2.95,-21.61,-18.14,347.3,349.06,14.97964096069336,15.341065406799316
133736348,3.13,3.0100000000000002,-21.57,-18.52,347.31,348.69,14.933594703674316,16.259174346923828
133835617,2.4,2.84,-21.330000000000002,-18.650000000000002,347.32,348.47,14.957972526550293,16.914106369018555
133936213,1.77,1.79,-20.89,-18.28,347.34000000000003,348.08,14.927407264709473,16.631383895874023
134035660,1.21,1.3800000000000001,-20.32,-18.11,347.35,347.77,14.899989128112793,16.73318862915039
134136571,0.6900000000000001,1.1500000000000001,-19.7,-17.81,347.36,347.3,14.865006446838379,17.727933883666992
134235723,0.24,0.78,-19.29,-17.490000000000002,347.37,346.98,14.81283187866211,18.871068954467773
134336249,-0.11,0.33,-18.89,-17.09,347.37,346.69,14.828871726989746,18.97688865661621
134435739,-0.49,0.56,-18.48,-16.35,347.36,346.43,14.867730140686035,18.254825592041016
134536271,-0.92,0.12,-17.78,-15.610000000000001,347.35,346.40000000000003,14.889948844909668,16.94634437561035
134635968,-1.22,-0.38,-15.14,-13.790000000000001,347.3,346.33,14.9317045211792,16.191640853881836
134736249,-1.28,-1.03,-9.85,-9.4,347.18,346.09000000000003,15.148810386657715,15.288657188415527
134835701,-1.11,-1.44,-3.29,-1.5,347.04,345.64,15.410642623901367,14.269614219665527
134936271,-0.8200000000000001,-1.3900000000000001,0.27,6.0,346.98,344.93,15.482184410095215,11.109275817871094
135035708,-0.62,-0.99,1.01,8.9,346.97,344.47,15.134162902832031,9.794057846069336
135136539,-0.51,-0.74,2.61,7.5,346.95,344.35,15.12938117980957,12.457624435424805
135235787,-0.3,-0.89,7.91,11.0,346.91,344.41,15.32916259765625,15.012896537780762
135336223,-0.06,-0.73,13.36,19.09,346.90000000000003,344.37,15.365915298461914,14.81056022644043
135435712,-0.01,-0.51,16.62,25.37,346.90000000000003,344.45,15.057960510253906,14.389289855957031
135536209,-0.04,-1.43,17.57,25.29,346.89,344.36,15.134405136108398,15.505718231201172
135636113,0.02,-2.62,17.47,24.94,346.89,343.86,15.06831169128418,16.891014099121094
135736233,0.46,-2.8000000000000003,17.150000000000002,24.77,346.89,342.93,15.003608703613281,16.996232986450195
135835753,1.1400000000000001,-2.33,16.59,23.400000000000002,346.89,342.12,14.883344650268555,17.552038192749023
135936273,1.77,-0.23,16.27,21.82,346.88,341.47,14.824110984802246,18.152240753173828
136035751,2.2,1.76,16.12,19.650000000000002,346.87,341.59000000000003,14.864764213562012,18.415464401245117
136136563,1.99,2.08,16.26,17.81,346.88,342.24,14.880197525024414,17.48798370361328
136235715,1.3800000000000001,1.6600000000000001,16.69,15.89,346.89,343.57,15.015592575073242,17.28136444091797
136336249,0.54,1.08,14.55,13.17,346.86,345.09000000000003,15.00863265991211,16.89743995666504
136435728,-0.13,0.35000000000000003,8.290000000000001,6.28,346.84000000000003,346.40000000000003,14.645116806030273,15.339056968688965
136536272,-0.51,0.5,4.8,-2.17,346.86,347.5,14.85792350769043,17.39963150024414
136635968,-0.73,-0.21,4.26,-3.99,346.86,348.47,14.886612892150879,17.83275032043457
136736216,-0.77,-0.8,5.21,-2.72,346.85,349.1,14.864191055297852,16.972673416137695
136835691,-0.61,-0.3,6.53,-1.07,346.83,349.5,14.924321174621582,16.65005874633789
136936155,-0.42,-0.4,7.72,0.6900000000000001,346.82,349.59000000000003,14.917905807495117,15.999678611755371
137035692,-0.33,-0.2,8.77,2.15,346.82,349.40000000000003,14.911791801452637,16.309507369995117
137136528,-0.29,0.01,9.57,3.52,346.81,349.2,14.899989128112793,16.120357513427734
137235727,-0.23,-0.04,10.200000000000001,4.46,346.81,348.89,14.898173332214355,16.425567626953125
137336227,-0.15,0.11,10.64,5.36,346.81,348.69,14.880742073059082,15.995260238647461
137435727,-0.15,0.4,11.15,5.83,346.81,348.43,14.805415153503418,16.45439338684082
137536248,-0.26,0.44,12.92,7.140000000000001,346.8,348.23,14.763443946838379,17.921100616455078
137635967,-0.41000000000000003,0.28,15.63,10.05,346.78000000000003,348.06,14.655465126037598,20.35576057434082
137736254,-0.56,0.37,17.14,12.67,346.77,347.85,14.496707916259766,22.212326049804688
137835733,-0.61,0.07,16.94,12.67,346.77,347.88,14.437030792236328,22.251081466674805
137936239,-0.6,0.05,15.89,11.07,346.78000000000003,347.97,14.461481094360352,22.091245651245117
138035706,-0.6,0.21,14.82,9.540000000000001,346.8,348.11,14.451313972473145,21.77358627319336
138136551,-0.65,0.28,13.94,8.18,346.81,348.41,14.495800971984863,21.284645080566406
138235734,-0.74,0.19,13.22,7.04,346.82,348.65000000000003,14.493439674377441,20.893115997314453
138336202,-0.89,0.3,12.64,6.26,346.82,349.01,14.553239822387695,20.87240982055664
138435687,-0.9400000000000001,0.15,12.120000000000001,6.13,346.83,349.43,14.563952445983887,20.76679229736328
138536172,-0.86,-0.33,11.51,5.99,346.84000000000003,349.92,14.557839393615723,20.444311141967773
138636058,-0.79,-0.52,10.84,5.73,346.85,350.04,14.540952682495117,20.333271026611328
138736263,-0.71,-0.41000000000000003,10.15,5.28,346.86,350.14,14.561772346496582,20.374433517456055
138835762,-0.81,-0.51,9.47,4.93,346.87,350.03000000000003,14.538228988647461,20.434473037719727
138936283,-0.91,-1.09,8.82,4.5600000000000005,346.88,349.86,14.49034595489502,20.935728073120117
139035754,-0.74,-1.25,8.26,4.14,346.89,349.68,14.493439674377441,20.930641174316406
139136111,-0.46,-0.63,7.78,3.77,346.89,349.47,14.489202499389648,20.55173683166504
139235749,-0.22,-0.33,7.36,3.24,346.90000000000003,349.31,14.563650131225586,20.27363395690918
139336275,-0.02,-0.4,6.95,3.18,346.90000000000003,349.13,14.599782943725586,19.384506225585938
139435739,0.25,-0.22,6.63,3.23,346.90000000000003,348.82,14.672656059265137,18.789546966552734
139536293,0.54,0.31,6.22,3.43,346.89,348.65000000000003,14.768165588378906,16.821136474609375
139635961,0.62,1.3900000000000001,5.84,3.66,346.89,348.35,14.926735877990723,15.016242980957031
139736284,0.5,1.01,5.41,4.0200000000000005,346.89,347.99,14.872147560119629,13.887096405029297
139835670,0.42,0.41000000000000003,6.53,4.5200000000000005,346.89,347.5,14.84630298614502,14.790080070495605
139936239,0.44,0.51,9.42,7.55,346.92,346.94,14.864582061767578,15.732619285583496
140035616,0.5700000000000001,0.6,13.22,12.14,346.95,346.53000000000003,14.824090957641602,16.147062301635742
140136488,0.68,0.74,16.52,16.28,346.99,346.2,14.724344253540039,16.98759651184082
140235643,0.75,0.9400000000000001,19.22,19.26,347.02,345.85,14.707639694213867,18.081937789916992
140336273,0.8,0.71,20.68,21.1,347.04,345.55,14.614692687988281,19.04667854309082
140435711,0.8200000000000001,0.66,20.990000000000002,21.48,347.05,345.31,14.577509880065918,19.0688533782959
140536250,0.77,1.1400000000000001,20.650000000000002,20.740000000000002,347.04,345.14,14.564133644104004,19.584501266479492
140636009,0.53,1.28,19.97,19.830000000000002,347.04,345.18,14.527878761291504,19.781681060791016
140736263,0.14,0.75,19.34,18.61,347.03000000000003,345.40000000000003,14.484360694885254,20.139503479003906
140835709,-0.1,0.29,18.900000000000002,17.150000000000002,347.03000000000003,345.87,14.467413902282715,19.866621017456055
140936305,-0.34,0.48,18.68,15.91,347.03000000000003,346.54,14.509418487548828,19.59233283996582
141035714,-0.62,0.11,18.72,15.200000000000001,347.03000000000003,347.22,14.538651466369629,19.234712600708008
141136632,-0.87,-0.75,18.92,14.89,347.03000000000003,347.92,14.552552223205566,18.992908477783203
141235723,-0.99,-1.01,19.25,15.22,347.02,348.54,14.55959415435791,18.98070526123047
141336269,-1.04,-1.0,19.56,15.530000000000001,347.02,349.14,14.531268119812012,18.96986198425293
141435689,-1.07,-0.97,19.88,15.63,347.01,349.6,14.509841918945312,19.1367244720459
141536215,-1.08,-0.98,20.21,15.96,347.0,349.95,14.527878761291504,19.105802536010742
141636014,-0.99,-0.91,20.48,16.29,347.0,350.2,14.521463394165039,19.026687622070312
141736221,-0.8300000000000001,-0.86,20.7,16.61,346.99,350.34000000000003,14.541799545288086,18.663848876953125
141835763,-0.75,-0.63,20.87,17.01,346.99,350.42,14.515161514282227,18.971267700195312
141936258,-0.78,-0.18,21.01,17.32,346.99,350.43,14.518195152282715,18.944963455200195
142035690,-0.84,-0.04,21.12,17.51,346.99,350.46,14.499431610107422,19.32085418701172
142136586,-0.92,-0.01,21.16,17.79,346.99,350.55,14.479156494140625,19.02427864074707
142235772,-0.98,-0.06,21.26,17.61,346.99,350.59000000000003,14.520493507385254,18.63172149658203
142336262,-1.08,0.45,21.3,17.81,346.99,350.56,14.514623641967773,18.616260528564453
142435712,-1.2,0.09,21.38,17.89,346.98,350.41,14.575815200805664,18.496383666992188
142536254,-1.27,0.01,20.71,17.830000000000002,347.0,350.28000000000003,14.614188194274902,17.915077209472656
142635976,-1.25,0.4,17.92,15.860000000000001,347.07,350.16,14.739845275878906,16.473356246948242
142736274,-1.1500000000000001,-0.03,12.55,11.03,347.18,350.12,14.722225189208984,13.48449993133545
142835775,-1.1300000000000001,-0.48,7.26,4.11,347.29,349.92,14.828328132629395,11.647811889648438
142936202,-1.24,-0.56,3.83,-0.88,347.36,349.53000000000003,14.895751953125,11.231560707092285
143035817,-1.33,-0.8200000000000001,2.47,-3.0100000000000002,347.39,349.0,14.929707527160645,10.94703197479248
143136001,-1.42,-0.76,2.11,-3.29,347.40000000000003,348.5,14.941085815429688,11.494403839111328
143235827,-1.56,-0.97,2.24,-2.44,347.40000000000003,348.1,14.935699462890625,12.131330490112305
143336200,-1.68,-1.49,2.24,-1.23,347.40000000000003,348.03000000000003,14.892705917358398,12.564739227294922
143435703,-1.7,-1.58,2.13,-0.34,347.40000000000003,348.13,14.922867774963379,12.938533782958984
143536246,-1.6,-1.7,1.8,0.6900000000000001,347.41,348.14,14.843700408935547,13.525461196899414
143636057,-1.43,-1.97,1.3,0.71,347.42,348.2,14.753033638000488,13.018248558044434
143736269,-1.3800000000000001,-1.31,0.84,-0.58,347.43,348.21,14.78825855255127,13.663609504699707
143835800,-1.51,-0.87,0.58,-0.98,347.44,348.14,14.817553520202637,14.028456687927246
143936236,-1.72,-1.4000000000000001,-0.12,-1.28,347.46,348.36,14.806236267089844,13.934283256530762
144035690,-1.86,-1.62,-2.29,-3.25,347.53000000000003,348.83,14.782280921936035,13.605311393737793
144136555,-1.94,-1.67,-5.3,-6.72,347.63,349.36,14.718352317810059,13.597346305847168
144235720,-1.98,-1.86,-8.39,-11.0,347.74,349.8,14.617576599121094,14.642895698547363
144336279,-2.04,-2.3000000000000003,-11.31,-15.25,347.84000000000003,350.35,14.5337495803833,16.25850486755371
144435697,-2.04,-2.7,-13.24,-18.18,347.91,351.2,14.479216575622559,17.459468841552734
144535657,-1.99,-3.77,-13.38,-18.91,347.92,352.45,14.513836860656738,17.721710205078125
144636011,-2.0300000000000002,-4.19,-12.46,-17.830000000000002,347.88,353.99,14.622782707214355,17.677536010742188
144736274,-2.09,-4.62,-11.52,-15.48,347.85,355.32,14.696334838867188,17.2745361328125
144835706,-1.96,-4.92,-9.98,-11.86,347.79,356.17,14.818038940429688,16.57495880126953
144936234,-1.51,-4.66,-8.370000000000001,-7.41,347.74,356.55,14.868999481201172,15.394275665283203
145035723,-1.01,-3.36,-7.390000000000001,-4.24,347.72,356.57,14.838374137878418,14.8485107421875
145136599,-0.62,-2.71,-7.05,-2.95,347.71,356.34000000000003,14.830808639526367,15.106133460998535
145235716,-0.24,-2.38,-7.0,-2.31,347.71,355.91,14.763201713562012,15.557724952697754
145336259,0.03,-1.46,-7.0200000000000005,-2.21,347.71,355.38,14.761022567749023,16.100677490234375
145435710,0.21,-1.2,-7.04,-2.22,347.71,354.76,14.728614807128906,16.299556732177734
145536246,0.27,-0.89,-6.99,-2.32,347.71,354.07,14.726462364196777,16.520544052124023
145636030,0.27,-0.68,-6.95,-2.49,347.71,353.40000000000003,14.705158233642578,16.608293533325195
145736296,0.22,-0.37,-6.84,-2.66,347.71,352.55,14.681188583374023,17.015106201171875
145835719,0.11,0.17,-6.72,-2.59,347.72,351.69,14.649110794067383,17.42734146118164
145936243,-0.09,0.51,-6.57,-2.65,347.72,350.86,14.639609336853027,17.62773895263672
146035746,-0.36,0.37,-6.3500000000000005,-2.65,347.71,350.15000000000003,14.644753456115723,17.63175392150879
146136595,-0.64,0.46,-6.05,-2.54,347.71,349.61,14.66970443725586,17.56189727783203
146235787,-0.93,0.25,-5.7700000000000005,-2.13,347.71,349.18,14.689058303833008,17.26108169555664
146336199,-1.17,-0.16,-5.5,-1.86,347.7,348.83,14.72791576385498,16.990209579467773
146435814,-1.29,-0.5700000000000001,-5.34,-1.6600000000000001,347.7,348.56,14.731244087219238,16.663108825683594
146536249,-1.35,-0.61,-5.23,-1.56,347.7,348.27,14.736933708190918,16.64242935180664
146635980,-1.41,-0.62,-5.11,-1.54,347.69,348.02,14.725069999694824,16.581789016723633
146736278,-1.5,-0.68,-4.93,-1.57,347.69,347.79,14.74679946899414,16.53359603881836
146835704,-1.51,-0.84,-4.75,-1.49,347.68,347.5,14.748010635375977,16.496850967407227
146936255,-1.47,-0.8,-4.54,-1.33,347.68,347.26,14.757330894470215,16.61882209777832
147035754,-1.43,-0.8300000000000001,-4.37,-1.1,347.67,347.15000000000003,14.73517894744873,16.702465057373047
147136569,-1.41,-0.91,-4.2,-0.97,347.67,347.15000000000003,14.753033638000488,16.762704849243164
147235733,-1.37,-1.0,-4.07,-0.88,347.67,347.21,14.744560241699219,16.622949600219727
147336242,-1.3,-1.08,-3.89,-1.0,347.66,347.25,14.747526168823242,16.72696304321289
147435715,-1.19,-1.06,-3.67,-1.0,347.66,347.24,14.729186058044434,16.84463119506836
147536288,-1.06,-1.03,-3.37,-0.97,347.65000000000003,347.2,14.74401569366455,16.705278396606445
147635998,-0.93,-1.06,-3.08,-0.92,347.65000000000003,347.2,14.73560905456543,16.593835830688477
147736227,-0.8,-1.02,-2.74,-0.87,347.64,347.27,14.746435165405273,16.748851776123047
147835648,-0.62,-0.84,-2.41,-0.64,347.64,347.42,14.747888565063477,16.705678939819336
147936193,-0.48,-0.51,-2.08,-0.41000000000000003,347.63,347.67,14.75811767578125,16.705678939819336
148035716,-0.39,-0.4,-1.78,-0.15,347.63,347.86,14.744075775146484,16.73318862915039
148136595,-0.32,-0.42,-1.49,0.07,347.63,348.0,14.769012451171875,16.629375457763672
148235708,-0.27,-0.5,-1.26,0.35000000000000003,347.63,348.12,14.779908180236816,16.458297729492188
148336304,-0.22,-0.53,-1.03,0.52,347.63,348.18,14.787290573120117,16.35508918762207
148435725,-0.2,-0.4,-0.8300000000000001,0.75,347.63,348.19,14.767619132995605,16.459077835083008
148536337,-0.18,-0.32,-0.63,0.93,347.63,348.22,14.773187637329102,16.520343780517578
148636042,-0.21,-0.23,-0.48,1.05,347.63,348.23,14.796672821044922,16.290834426879883
148736306,-0.26,-0.27,-0.34,1.09,347.63,348.17,14.791830062866211,16.213525772094727
148835705,-0.33,-0.23,-0.24,1.23,347.63,348.09000000000003,14.786262512207031,16.410106658935547
148936279,-0.4,-0.21,-0.18,1.23,347.63,348.06,14.938302040100098,16.641023635864258
149035779,-0.45,-0.41000000000000003,-3.06,0.14,347.65000000000003,348.03000000000003,14.74038314819336,15.591458320617676
149136553,-0.47000000000000003,-0.34,-7.890000000000001,-5.79,347.69,347.93,14.680732727050781,16.097644805908203
149235757,-0.53,0.08,-11.58,-11.07,347.72,347.72,14.683549880981445,17.970096588134766
149336183,-0.67,0.03,-13.84,-13.43,347.74,347.63,14.670900344848633,18.503009796142578
149435683,-0.8,-0.24,-14.85,-14.26,347.76,347.68,14.725069999694824,18.395984649658203
149536197,-0.89,-0.45,-15.83,-14.42,347.77,347.75,14.70013427734375,18.344581604003906
149636070,-0.86,-0.8200000000000001,-16.97,-15.1,347.79,347.71,14.677740097045898,18.566261291503906
149736302,-0.8,-0.8200000000000001,-17.830000000000002,-15.780000000000001,347.8,347.67,14.645541191101074,19.10841178894043
149835713,-0.72,-0.79,-18.17,-15.89,347.81,347.55,14.66425609588623,19.31463050842285
149935714,-0.66,-0.55,-18.25,-15.69,347.81,347.52,14.696501731872559,18.90681266784668
150035734,-0.6900000000000001,-0.35000000000000003,-18.14,-15.31,347.81,347.40000000000003,14.77579116821289,18.385746002197266
150136542,-0.79,-0.34,-18.14,-14.71,347.81,347.39,14.78027057647705,17.823312759399414
150235732,-0.87,-0.63,-18.240000000000002,-14.67,347.81,347.3,14.805025100708008,17.697412490844727
150336244,-0.91,-0.67,-18.41,-14.5,347.81,347.2,14.797337532043457,17.663881301879883
150435740,-0.91,-0.68,-18.68,-14.780000000000001,347.82,347.06,14.769012451171875,17.759658813476562
150535718,-0.92,-0.6,-18.91,-15.22,347.82,346.83,14.733725547790527,18.271156311035156
150636048,-0.96,-0.6,-19.06,-15.65,347.82,346.69,14.770283699035645,18.81324005126953
150736216,-0.97,-0.89,-19.16,-15.27,347.82,346.44,14.803330421447754,18.096195220947266
150835681,-0.8300000000000001,-1.22,-19.29,-15.22,347.83,346.29,14.845879554748535,17.24220848083496
150936219,-0.59,-0.86,-19.62,-15.540000000000001,347.83,346.18,14.8092622756958,17.61127281188965
151035695,-0.35000000000000003,-0.38,-19.92,-15.97,347.83,346.26,14.770463943481445,18.106637954711914
151136487,-0.12,-0.43,-20.14,-16.490000000000002,347.84000000000003,346.52,14.78704833984375,18.37932014465332
151235763,0.23,-0.43,-20.22,-16.64,347.84000000000003,346.97,14.824984550476074,18.431123733520508
151336225,0.63,-0.02,-20.25,-16.39,347.83,347.63,14.893453598022461,17.917686462402344
151435699,0.9500000000000001,0.33,-20.28,-15.84,347.83,348.1,14.892725944519043,16.576967239379883
151536342,1.25,0.34,-20.37,-16.42,347.83,348.32,14.817976951599121,17.204057693481445
151636008,1.52,0.46,-20.46,-17.21,347.83,348.6,14.722951889038086,18.707822799682617
151736268,1.6500000000000001,0.86,-20.36,-17.79,347.83,348.75,14.798368453979492,19.689115524291992
151835754,1.6600000000000001,0.51,-20.1,-16.990000000000002,347.84000000000003,348.74,14.821608543395996,18.194183349609375
151936270,1.6600000000000001,0.73,-19.72,-16.6,347.85,348.62,14.867608070373535,17.858253479003906
152035717,1.72,0.89,-19.59,-16.3,347.86,348.52,14.826396942138672,17.822486877441406
152136535,1.72,0.98,-19.56,-16.46,347.86,348.3,14.818341255187988,18.041580200195312
152235713,1.59,0.98,-19.38,-16.490000000000002,347.86,348.01,14.84908676147461,18.29558753967285
152336196,1.41,0.79,-19.11,-15.96,347.87,347.67,14.90174388885498,17.544607162475586
152435674,1.33,0.85,-18.87,-15.76,347.88,347.48,14.927287101745605,16.69824981689453
152536230,1.24,1.02,-18.76,-15.72,347.88,347.28000000000003,14.933218002319336,16.57415771484375
152635996,1.05,0.97,-18.79,-15.860000000000001,347.88,346.93,14.918147087097168,16.474361419677734
152736254,0.8300000000000001,0.89,-18.81,-16.28,347.88,346.55,14.878517150878906,16.89703941345215
152835801,0.72,0.65,-18.78,-16.69,347.88,346.26,14.814830780029297,17.7275333404541
152936242,0.56,1.1300000000000001,-18.63,-16.88,347.88,346.14,14.838374137878418,18.35000228881836
153035702,0.33,0.86,-18.36,-16.52,347.88,346.14,14.828024864196777,18.032140731811523
153136602,0.08,0.39,-18.02,-16.29,347.88,345.93,14.785052299499512,18.540157318115234
153235727,-0.01,0.44,-17.94,-16.25,347.88,345.87,14.753094673156738,19.581890106201172
153336243,-0.06,0.23,-17.87,-16.14,347.88,345.8,14.771856307983398,19.126081466674805
153435731,-0.09,0.13,-17.55,-16.0,347.88,345.65000000000003,14.810795783996582,18.823570251464844
153536239,-0.13,0.3,-17.330000000000002,-15.64,347.88,345.56,14.78856086730957,18.62047576904297
153636066,-0.06,0.03,-16.25,-15.06,347.88,345.45,14.738809585571289,18.28534698486328
153736254,0.09,0.2,-12.75,-12.51,347.88,345.1,14.83940315246582,17.578943252563477
153835727,0.35000000000000003,0.01,-6.78,-7.0200000000000005,347.91,344.94,15.080476760864258,16.651464462280273
153936233,0.47000000000000003,-0.07,-1.19,0.77,347.95,344.57,15.287413597106934,14.373226165771484
154035688,0.41000000000000003,0.04,1.17,5.83,347.97,344.31,15.307809829711914,11.005866050720215
154136474,0.11,0.22,1.69,6.69,347.97,344.05,15.309566497802734,10.734790802001953
154235711,-0.44,0.18,1.46,6.21,347.97,343.82,15.27912712097168,11.307306289672852
154336250,-0.99,-0.17,1.1400000000000001,5.71,347.98,343.43,15.35701847076416,11.378342628479004
154435738,-1.22,-1.33,0.64,5.54,347.99,342.98,15.405679702758789,9.95007610321045
154536282,-1.06,-2.05,0.18,4.98,348.0,342.66,15.39750862121582,8.376433372497559
154636014,-0.64,-2.58,-0.08,3.48,348.0,342.71,15.405800819396973,8.699112892150879
154736261,-0.18,-2.05,0.0,3.08,348.0,342.71,15.400717735290527,9.290459632873535
154835726,0.25,-1.69,0.33,3.14,348.0,342.90000000000003,15.279848098754883,9.73582649230957
154936238,0.46,-0.93,1.69,3.74,348.01,343.04,15.238449096679688,12.127917289733887
155035703,0.66,-0.64,4.5,6.91,348.04,343.25,15.251823425292969,13.230714797973633
155136507,1.02,-1.3900000000000001,7.930000000000001,11.27,348.09000000000003,343.19,15.152925491333008,13.567026138305664
155235719,1.29,-1.03,11.13,14.98,348.15000000000003,343.19,15.127202033996582,15.748682975769043
155336259,1.43,-1.09,13.89,19.240000000000002,348.22,343.5,15.068916320800781,17.580951690673828
155435702,1.52,-1.17,15.21,22.16,348.26,343.7,14.948591232299805,18.44036102294922
155536199,1.62,-1.53,14.86,22.25,348.25,343.96,14.872692108154297,18.004430770874023
155636031,1.78,-0.85,13.5,19.240000000000002,348.21,344.48,14.943022727966309,16.214330673217773
155736285,2.13,0.35000000000000003,12.4,15.47,348.17,345.51,15.004005432128906,15.620641708374023
155835687,2.22,2.2600000000000002,12.17,13.18,348.16,346.56,14.99156379699707,16.485605239868164
155936258,1.9100000000000001,3.67,12.64,12.83,348.18,347.69,14.953372955322266,17.1478328704834
156035759,1.41,3.5100000000000002,13.18,12.530000000000001,348.19,348.94,14.891334533691406,16.904870986938477
156136585,0.89,2.6,14.120000000000001,11.77,348.21,349.91,14.92347240447998,16.327579498291016
156235715,0.39,1.97,15.780000000000001,11.76,348.23,350.75,14.955188751220703,16.330791473388672
156336259,-0.02,1.17,17.95,13.27,348.24,351.51,14.967353820800781,16.617931365966797
156435723,-0.42,1.19,19.5,14.870000000000001,348.23,352.12,14.915968894958496,16.61873435974121
156536252,-0.9,0.98,20.26,15.540000000000001,348.22,352.68,14.876296043395996,16.805788040161133
156636042,-1.3900000000000001,0.74,20.900000000000002,15.64,348.21,353.05,14.834076881408691,17.248432159423828
156735730,-1.81,0.36,21.79,16.04,348.18,353.24,14.821245193481445,17.42955207824707
156835656,-2.08,0.2,22.84,16.66,348.14,353.23,14.80000114440918,17.492401123046875
156936175,-2.23,0.27,23.84,17.42,348.1,352.98,14.775973320007324,17.67673110961914
157035673,-2.31,0.16,24.7,17.92,348.06,352.55,14.722589492797852,18.1494083404541
157136518,-2.31,-0.07,25.47,18.34,348.03000000000003,351.93,14.70304012298584,18.21366310119629
